adresse,code_postal,ville,latitude,longitude,result_label,result_score,result_type,result_id,result_housenumber,result_name,result_street,result_postcode,result_city,result_context,result_citycode,result_oldcitycode,result_oldcity,result_district
41 rue de Rome,13001,Marseille,43.294193,5.379158,41 Rue de Rome 13001 Marseille,0.97,housenumber,13201_8024_00041,41,Rue de Rome,,13001,Marseille,"13, Bouches-du-Rhône, Provence-Alpes-Côte d'Azur",13201,,,Marseille 1er Arrondissement
1 rue de la Palud,13001,Marseille,43.294829,5.37892,1 Rue de la Palud 13001 Marseille,0.97,housenumber,13201_6757_00001,1,Rue de la Palud,,13001,Marseille,"13, Bouches-du-Rhône, Provence-Alpes-Côte d'Azur",13201,,,Marseille 1er Arrondissement
4 rue Pytheas,13001,Marseille,43.294474,5.37553,4 Rue Pytheas 13001 Marseille,0.96,housenumber,13201_7651_00004,4,Rue Pytheas,,13001,Marseille,"13, Bouches-du-Rhône, Provence-Alpes-Côte d'Azur",13201,,,Marseille 1er Arrondissement
15 rue de la Fare,13001,Marseille,43.300756,5.378043,15 Rue de la Fare 13001 Marseille,0.97,housenumber,13201_3346_00015,15,Rue de la Fare,,13001,Marseille,"13, Bouches-du-Rhône, Provence-Alpes-Côte d'Azur",13201,,,Marseille 1er Arrondissement
17 rue Moustier,13001,Marseille,43.294197,5.38056,17 Rue Jean-Pierre Moustier 13001 Marseille,0.71,housenumber,13201_6386_00017,17,Rue Jean-Pierre Moustier,,13001,Marseille,"13, Bouches-du-Rhône, Provence-Alpes-Côte d'Azur",13201,,,Marseille 1er Arrondissement
24 cours Lieutaud,13001,Marseille,43.294574,5.381825,24 Cours Lieutaud 13001 Marseille,0.97,housenumber,13201_5280_00024,24,Cours Lieutaud,,13001,Marseille,"13, Bouches-du-Rhône, Provence-Alpes-Côte d'Azur",13201,,,Marseille 1er Arrondissement
26 cours Lieutaud,13001,Marseille,43.29445,5.381865,26 Cours Lieutaud 13001 Marseille,0.97,housenumber,13201_5280_00026,26,Cours Lieutaud,,13001,Marseille,"13, Bouches-du-Rhône, Provence-Alpes-Côte d'Azur",13201,,,Marseille 1er Arrondissement
3 rue Francis de Pressensé,13001,Marseille,43.300712,5.375728,3 Rue Francis de Pressense 13001 Marseille,0.97,housenumber,13201_3693_00003,3,Rue Francis de Pressense,,13001,Marseille,"13, Bouches-du-Rhône, Provence-Alpes-Côte d'Azur",13201,,,Marseille 1er Arrondissement
4 rue d'Aix,13001,Marseille,43.299455,5.376174,4 Rue d’Aix 13001 Marseille,0.97,housenumber,13201_0114_00004,4,Rue d’Aix,,13001,Marseille,"13, Bouches-du-Rhône, Provence-Alpes-Côte d'Azur",13201,,,Marseille 1er Arrondissement
3 rue de la Palud,13001,Marseille,43.29479,5.378969,3 Rue de la Palud 13001 Marseille,0.97,housenumber,13201_6757_00003,3,Rue de la Palud,,13001,Marseille,"13, Bouches-du-Rhône, Provence-Alpes-Côte d'Azur",13201,,,Marseille 1er Arrondissement
24 rue Rodolphe Pollak,13001,Marseille,43.29605,5.380183,24 Rue Rodolphe Pollak 13001 Marseille,0.97,housenumber,13201_7977_00024,24,Rue Rodolphe Pollak,,13001,Marseille,"13, Bouches-du-Rhône, Provence-Alpes-Côte d'Azur",13201,,,Marseille 1er Arrondissement
20 boulevard Garibaldi,13001,Marseille,43.296651,5.381078,20 Boulevard Garibaldi 13001 Marseille,0.97,housenumber,13201_3889_00020,20,Boulevard Garibaldi,,13001,Marseille,"13, Bouches-du-Rhône, Provence-Alpes-Côte d'Azur",13201,,,Marseille 1er Arrondissement
18 rue Jean Roque,13001,Marseille,43.294619,5.381411,18 Rue Jean Roque 13001 Marseille,0.97,housenumber,13201_4788_00018,18,Rue Jean Roque,,13001,Marseille,"13, Bouches-du-Rhône, Provence-Alpes-Côte d'Azur",13201,,,Marseille 1er Arrondissement
24 rue Vacon,13001,Marseille,43.295085,5.377999,24 Rue Vacon 13001 Marseille,0.97,housenumber,13201_9275_00024,24,Rue Vacon,,13001,Marseille,"13, Bouches-du-Rhône, Provence-Alpes-Côte d'Azur",13201,,,Marseille 1er Arrondissement
19 rue Nationale,13001,Marseille,43.299554,5.377349,19 Rue Nationale 13001 Marseille,0.97,housenumber,13201_6465_00019,19,Rue Nationale,,13001,Marseille,"13, Bouches-du-Rhône, Provence-Alpes-Côte d'Azur",13201,,,Marseille 1er Arrondissement
1 cours Jean Ballard,13001,Marseille,43.293892,5.374415,1 Cours Jean Ballard 13001 Marseille,0.96,housenumber,13201_4672_00001,1,Cours Jean Ballard,,13001,Marseille,"13, Bouches-du-Rhône, Provence-Alpes-Côte d'Azur",13201,,,Marseille 1er Arrondissement
1 rue Lafayette,13001,Marseille,43.299396,5.381524,1 Rue Lafayette 13001 Marseille,0.97,housenumber,13201_5037_00001,1,Rue Lafayette,,13001,Marseille,"13, Bouches-du-Rhône, Provence-Alpes-Côte d'Azur",13201,,,Marseille 1er Arrondissement
71 rue d'Aubagne,13001,Marseille,43.293946,5.381397,71 Rue d’Aubagne 13001 Marseille,0.97,housenumber,13201_0576_00071,71,Rue d’Aubagne,,13001,Marseille,"13, Bouches-du-Rhône, Provence-Alpes-Côte d'Azur",13201,,,Marseille 1er Arrondissement
79 rue d'Aubagne,13001,Marseille,43.29381,5.381571,79 Rue d’Aubagne 13001 Marseille,0.97,housenumber,13201_0576_00079,79,Rue d’Aubagne,,13001,Marseille,"13, Bouches-du-Rhône, Provence-Alpes-Côte d'Azur",13201,,,Marseille 1er Arrondissement
81 rue d'Aubagne,13001,Marseille,43.293779,5.381611,81 Rue d’Aubagne 13001 Marseille,0.97,housenumber,13201_0576_00081,81,Rue d’Aubagne,,13001,Marseille,"13, Bouches-du-Rhône, Provence-Alpes-Côte d'Azur",13201,,,Marseille 1er Arrondissement
83 rue d'Aubagne,13001,Marseille,43.293743,5.381657,83 Rue d’Aubagne 13001 Marseille,0.97,housenumber,13201_0576_00083,83,Rue d’Aubagne,,13001,Marseille,"13, Bouches-du-Rhône, Provence-Alpes-Côte d'Azur",13201,,,Marseille 1er Arrondissement
12 rue Chateauredon,13001,Marseille,43.294892,5.381022,12 Rue Chateauredon 13001 Marseille,0.97,housenumber,13201_2177_00012,12,Rue Chateauredon,,13001,Marseille,"13, Bouches-du-Rhône, Provence-Alpes-Côte d'Azur",13201,,,Marseille 1er Arrondissement
21 rue des Petites Maries,13001,Marseille,43.30061,5.377448,21 Rue des Petites Maries 13001 Marseille,0.97,housenumber,13201_7051_00021,21,Rue des Petites Maries,,13001,Marseille,"13, Bouches-du-Rhône, Provence-Alpes-Côte d'Azur",13201,,,Marseille 1er Arrondissement
15 rue Saint-Bazile,13001,Marseille,43.299552,5.384324,15 Rue Saint Bazile 13001 Marseille,0.97,housenumber,13201_8260_00015,15,Rue Saint Bazile,,13001,Marseille,"13, Bouches-du-Rhône, Provence-Alpes-Côte d'Azur",13201,,,Marseille 1er Arrondissement
38 rue du Tapis Vert,13001,Marseille,43.298513,5.378867,38 Rue Tapis Vert 13001 Marseille,0.89,housenumber,13201_8920_00038,38,Rue Tapis Vert,,13001,Marseille,"13, Bouches-du-Rhône, Provence-Alpes-Côte d'Azur",13201,,,Marseille 1er Arrondissement
12a boulevard Dugommier,13001,Marseille,43.298464,5.381112,12 a Boulevard Dugommier 13001 Marseille,0.9,housenumber,13201_2912_00012_a,12 a,Boulevard Dugommier,,13001,Marseille,"13, Bouches-du-Rhône, Provence-Alpes-Côte d'Azur",13201,,,Marseille 1er Arrondissement
10 rue Glandèves / 22 rue Saint-Saëns,13001,Marseille,43.294003,5.37587,10 Rue Saint Saens 13001 Marseille,0.66,housenumber,13201_8457_00010,10,Rue Saint Saens,,13001,Marseille,"13, Bouches-du-Rhône, Provence-Alpes-Côte d'Azur",13201,,,Marseille 1er Arrondissement
9 rue de la Fare,13001,Marseille,43.300559,5.378065,9 Rue de la Fare 13001 Marseille,0.97,housenumber,13201_3346_00009,9,Rue de la Fare,,13001,Marseille,"13, Bouches-du-Rhône, Provence-Alpes-Côte d'Azur",13201,,,Marseille 1er Arrondissement
25 rue des Dominicaines,13001,Marseille,43.300271,5.377729,25 Rue des Dominicaines 13001 Marseille,0.97,housenumber,13201_2888_00025,25,Rue des Dominicaines,,13001,Marseille,"13, Bouches-du-Rhône, Provence-Alpes-Côte d'Azur",13201,,,Marseille 1er Arrondissement
25 boulevard de la Libération,13001,Marseille,43.299609,5.386691,25 Boulevard de la Liberation General de Monsabert 13001 Marseille,0.68,housenumber,13201_h3uw4i_00025,25,Boulevard de la Liberation General de Monsabert,,13001,Marseille,"13, Bouches-du-Rhône, Provence-Alpes-Côte d'Azur",13201,,,Marseille 1er Arrondissement
76 rue nationale,13001,Marseille,43.299244,5.379977,76 Rue Nationale 13001 Marseille,0.97,housenumber,13201_6465_00076,76,Rue Nationale,,13001,Marseille,"13, Bouches-du-Rhône, Provence-Alpes-Côte d'Azur",13201,,,Marseille 1er Arrondissement
1 Traverse Saint-Bazile,13001,Marseille,43.299745,5.384258,1 Traverse Saint Bazile 13001 Marseille,0.96,housenumber,13201_8262_00001,1,Traverse Saint Bazile,,13001,Marseille,"13, Bouches-du-Rhône, Provence-Alpes-Côte d'Azur",13201,,,Marseille 1er Arrondissement
20 rue des Petites Maries,13001,Marseille,43.300822,5.377896,20 Rue des Petites Maries 13001 Marseille,0.97,housenumber,13201_7051_00020,20,Rue des Petites Maries,,13001,Marseille,"13, Bouches-du-Rhône, Provence-Alpes-Côte d'Azur",13201,,,Marseille 1er Arrondissement
29 rue Tapis Vert,13001,Marseille,43.298552,5.378704,29 Rue Tapis Vert 13001 Marseille,0.97,housenumber,13201_8920_00029,29,Rue Tapis Vert,,13001,Marseille,"13, Bouches-du-Rhône, Provence-Alpes-Côte d'Azur",13201,,,Marseille 1er Arrondissement
"31, 33 rue Adolphe Thiers",13001,Marseille,43.297468,5.385437,33 Rue Adolphe Thiers 13001 Marseille,0.9,housenumber,13201_0074_00033,33,Rue Adolphe Thiers,,13001,Marseille,"13, Bouches-du-Rhône, Provence-Alpes-Côte d'Azur",13201,,,Marseille 1er Arrondissement
1 Bis Rue D'Isoard,13001,Marseille,43.301232,5.391186,1 b Rue d’Isoard 13001 Marseille,0.86,housenumber,13201_4613_00001_b,1 b,Rue d’Isoard,,13001,Marseille,"13, Bouches-du-Rhône, Provence-Alpes-Côte d'Azur",13201,,,Marseille 1er Arrondissement
20 rue Chateauredon,13001,Marseille,43.295108,5.381185,20 Rue Chateauredon 13001 Marseille,0.97,housenumber,13201_2177_00020,20,Rue Chateauredon,,13001,Marseille,"13, Bouches-du-Rhône, Provence-Alpes-Côte d'Azur",13201,,,Marseille 1er Arrondissement
18 rue d'Aix,13001,Marseille,43.299773,5.375995,18 Rue d’Aix 13001 Marseille,0.97,housenumber,13201_0114_00018,18,Rue d’Aix,,13001,Marseille,"13, Bouches-du-Rhône, Provence-Alpes-Côte d'Azur",13201,,,Marseille 1er Arrondissement
42 rue d'Aubagne,13001,Marseille,43.29471,5.380268,42 Rue d’Aubagne 13001 Marseille,0.97,housenumber,13201_0576_00042,42,Rue d’Aubagne,,13001,Marseille,"13, Bouches-du-Rhône, Provence-Alpes-Côte d'Azur",13201,,,Marseille 1er Arrondissement
60 A rue d'Aubagne,13001,Marseille,43.294684,5.38031,Rue d’Aubagne 13001 Marseille,0.84,street,13201_0576,,Rue d’Aubagne,,13001,Marseille,"13, Bouches-du-Rhône, Provence-Alpes-Côte d'Azur",13201,,,Marseille 1er Arrondissement
62 rue d'Aubagne,13001,Marseille,43.29412,5.380951,62 Rue d’Aubagne 13001 Marseille,0.97,housenumber,13201_0576_00062,62,Rue d’Aubagne,,13001,Marseille,"13, Bouches-du-Rhône, Provence-Alpes-Côte d'Azur",13201,,,Marseille 1er Arrondissement
40 rue d'Aubagne,13001,Marseille,43.294751,5.380216,40 Rue d’Aubagne 13001 Marseille,0.97,housenumber,13201_0576_00040,40,Rue d’Aubagne,,13001,Marseille,"13, Bouches-du-Rhône, Provence-Alpes-Côte d'Azur",13201,,,Marseille 1er Arrondissement
29 rue Adolphe Thiers,13001,Marseille,43.297532,5.385431,29 Rue Adolphe Thiers 13001 Marseille,0.97,housenumber,13201_0074_00029,29,Rue Adolphe Thiers,,13001,Marseille,"13, Bouches-du-Rhône, Provence-Alpes-Côte d'Azur",13201,,,Marseille 1er Arrondissement
2 place du Marché des Capucins,13001,Marseille,43.29644,5.379544,2 Rue du Marche des Capucins 13001 Marseille,0.81,housenumber,13201_yexk3z_00002,2,Rue du Marche des Capucins,,13001,Marseille,"13, Bouches-du-Rhône, Provence-Alpes-Côte d'Azur",13201,,,Marseille 1er Arrondissement
55 allées Léon Gambetta,13001,Marseille,43.299206,5.383958,55 Allée Leon Gambetta 13001 Marseille,0.9,housenumber,13201_5212_00055,55,Allée Leon Gambetta,,13001,Marseille,"13, Bouches-du-Rhône, Provence-Alpes-Côte d'Azur",13201,,,Marseille 1er Arrondissement
64 rue d'Aubagne,13001,Marseille,43.294094,5.381037,64 Rue d’Aubagne 13001 Marseille,0.97,housenumber,13201_0576_00064,64,Rue d’Aubagne,,13001,Marseille,"13, Bouches-du-Rhône, Provence-Alpes-Côte d'Azur",13201,,,Marseille 1er Arrondissement
39-41-43 rue de la Palud / 1 Domaine VENTRE,13001,Marseille,43.293517,5.380483,Domaine Ventre 13001 Marseille,0.52,street,13201_9438,,Domaine Ventre,,13001,Marseille,"13, Bouches-du-Rhône, Provence-Alpes-Côte d'Azur",13201,,,Marseille 1er Arrondissement
68 rue de Grignan,13001,Marseille,43.291685,5.374745,68 Rue Grignan 13001 Marseille,0.88,housenumber,13201_4260_00068,68,Rue Grignan,,13001,Marseille,"13, Bouches-du-Rhône, Provence-Alpes-Côte d'Azur",13201,,,Marseille 1er Arrondissement
Immeuble 174 La Canebière / 2 rue Adolphe Thiers,13001,Marseille,43.298686,5.385223,2 Rue Adolphe Thiers 13001 Marseille,0.58,housenumber,13201_0074_00002,2,Rue Adolphe Thiers,,13001,Marseille,"13, Bouches-du-Rhône, Provence-Alpes-Côte d'Azur",13201,,,Marseille 1er Arrondissement
37 rue Thubaneau,13001,Marseille,43.298092,5.379902,37 Rue Thubaneau 13001 Marseille,0.97,housenumber,13201_9025_00037,37,Rue Thubaneau,,13001,Marseille,"13, Bouches-du-Rhône, Provence-Alpes-Côte d'Azur",13201,,,Marseille 1er Arrondissement
22 rue des Feuillants,13001,Marseille,43.296478,5.379273,22 Rue des Feuillants 13001 Marseille,0.96,housenumber,13201_3462_00022,22,Rue des Feuillants,,13001,Marseille,"13, Bouches-du-Rhône, Provence-Alpes-Côte d'Azur",13201,,,Marseille 1er Arrondissement
20 rue Corneille,13001,Marseille,43.293161,5.375595,20 Rue Corneille 13001 Marseille,0.96,housenumber,13201_2557_00020,20,Rue Corneille,,13001,Marseille,"13, Bouches-du-Rhône, Provence-Alpes-Côte d'Azur",13201,,,Marseille 1er Arrondissement
20 rue d'Anvers,13001,Marseille,43.302461,5.393981,20 Rue d’Anvers 13001 Marseille,0.97,housenumber,13201_0455_00020,20,Rue d’Anvers,,13001,Marseille,"13, Bouches-du-Rhône, Provence-Alpes-Côte d'Azur",13201,,,Marseille 1er Arrondissement
74 rue d'Aubagne,13001,Marseille,43.293893,5.381313,74 Rue d’Aubagne 13001 Marseille,0.97,housenumber,13201_0576_00074,74,Rue d’Aubagne,,13001,Marseille,"13, Bouches-du-Rhône, Provence-Alpes-Côte d'Azur",13201,,,Marseille 1er Arrondissement
86 rue Longue des Capucins,13001,Marseille,43.301637,5.3782,86 Rue Longue des Capucins 13001 Marseille,0.97,housenumber,13201_5352_00086,86,Rue Longue des Capucins,,13001,Marseille,"13, Bouches-du-Rhône, Provence-Alpes-Côte d'Azur",13201,,,Marseille 1er Arrondissement
3 place du Marché des Capucins,13001,Marseille,43.296571,5.379738,3 Rue du Marche des Capucins 13001 Marseille,0.81,housenumber,13201_yexk3z_00003,3,Rue du Marche des Capucins,,13001,Marseille,"13, Bouches-du-Rhône, Provence-Alpes-Côte d'Azur",13201,,,Marseille 1er Arrondissement
44 rue d'Aix,13001,Marseille,43.300824,5.375401,44 Rue d’Aix 13001 Marseille,0.97,housenumber,13201_0114_00044,44,Rue d’Aix,,13001,Marseille,"13, Bouches-du-Rhône, Provence-Alpes-Côte d'Azur",13201,,,Marseille 1er Arrondissement
60 rue du Commandant Mages,13001,Marseille,43.304139,5.391361,60 Rue Commandant Mages 13001 Marseille,0.9,housenumber,13201_2459_00060,60,Rue Commandant Mages,,13001,Marseille,"13, Bouches-du-Rhône, Provence-Alpes-Côte d'Azur",13201,,,Marseille 1er Arrondissement
58 rue Sénac de Meilhan,13001,Marseille,43.296425,5.38421,58 Rue Senac de Meilhan 13001 Marseille,0.97,housenumber,13201_8akra3_00058,58,Rue Senac de Meilhan,,13001,Marseille,"13, Bouches-du-Rhône, Provence-Alpes-Côte d'Azur",13201,,,Marseille 1er Arrondissement
19/24 Domaine Ventre,13001,Marseille,43.293517,5.380483,Domaine Ventre 13001 Marseille,0.8,street,13201_9438,,Domaine Ventre,,13001,Marseille,"13, Bouches-du-Rhône, Provence-Alpes-Côte d'Azur",13201,,,Marseille 1er Arrondissement
19 rue Glandèves,13001,Marseille,43.293383,5.375185,19 Rue Glandeves 13001 Marseille,0.97,housenumber,13201_4137_00019,19,Rue Glandeves,,13001,Marseille,"13, Bouches-du-Rhône, Provence-Alpes-Côte d'Azur",13201,,,Marseille 1er Arrondissement
8 rue de Rome,13001,Marseille,43.295038,5.378507,8 Rue de Rome 13001 Marseille,0.97,housenumber,13201_8024_00008,8,Rue de Rome,,13001,Marseille,"13, Bouches-du-Rhône, Provence-Alpes-Côte d'Azur",13201,,,Marseille 1er Arrondissement
9 boulevard d'Athènes,13001,Marseille,43.299611,5.380624,9 Boulevard d’Athenes 13001 Marseille,0.97,housenumber,13201_0574_00009,9,Boulevard d’Athenes,,13001,Marseille,"13, Bouches-du-Rhône, Provence-Alpes-Côte d'Azur",13201,,,Marseille 1er Arrondissement
19 rue Longue des Capucins,13001,Marseille,43.300243,5.378462,19 Rue Longue des Capucins 13001 Marseille,0.97,housenumber,13201_5352_00019,19,Rue Longue des Capucins,,13001,Marseille,"13, Bouches-du-Rhône, Provence-Alpes-Côte d'Azur",13201,,,Marseille 1er Arrondissement
36 boulevard de la Libération,13001,Marseille,43.299795,5.387776,36 Boulevard de la Liberation General de Monsabert 13001 Marseille,0.68,housenumber,13201_h3uw4i_00036,36,Boulevard de la Liberation General de Monsabert,,13001,Marseille,"13, Bouches-du-Rhône, Provence-Alpes-Côte d'Azur",13201,,,Marseille 1er Arrondissement
7 rue Rodolphe Pollak,13001,Marseille,43.295711,5.379859,7 Rue Rodolphe Pollak 13001 Marseille,0.97,housenumber,13201_7977_00007,7,Rue Rodolphe Pollak,,13001,Marseille,"13, Bouches-du-Rhône, Provence-Alpes-Côte d'Azur",13201,,,Marseille 1er Arrondissement
73 rue d'Aubagne,13001,Marseille,43.293913,5.381439,73 Rue d’Aubagne 13001 Marseille,0.97,housenumber,13201_0576_00073,73,Rue d’Aubagne,,13001,Marseille,"13, Bouches-du-Rhône, Provence-Alpes-Côte d'Azur",13201,,,Marseille 1er Arrondissement
141 boulevard de la Libération,13001,Marseille,43.301288,5.391775,141 Boulevard de la Liberation General de Monsabert 13001 Marseille,0.68,housenumber,13201_h3uw4i_00141,141,Boulevard de la Liberation General de Monsabert,,13001,Marseille,"13, Bouches-du-Rhône, Provence-Alpes-Côte d'Azur",13201,,,Marseille 1er Arrondissement
23 rue de la Palud,13001,Marseille,43.29419,5.379599,23 Rue de la Palud 13001 Marseille,0.97,housenumber,13201_6757_00023,23,Rue de la Palud,,13001,Marseille,"13, Bouches-du-Rhône, Provence-Alpes-Côte d'Azur",13201,,,Marseille 1er Arrondissement
139 boulevard de la Libération,13001,Marseille,43.301266,5.391707,139 Boulevard de la Liberation General de Monsabert 13001 Marseille,0.68,housenumber,13201_h3uw4i_00139,139,Boulevard de la Liberation General de Monsabert,,13001,Marseille,"13, Bouches-du-Rhône, Provence-Alpes-Côte d'Azur",13201,,,Marseille 1er Arrondissement
75 rue d'Aubagne,13001,Marseille,43.293878,5.381484,75 Rue d’Aubagne 13001 Marseille,0.97,housenumber,13201_0576_00075,75,Rue d’Aubagne,,13001,Marseille,"13, Bouches-du-Rhône, Provence-Alpes-Côte d'Azur",13201,,,Marseille 1er Arrondissement
14 rue Poids de la Farine/11 rue Vincent Scotto,13001,Marseille,43.297309,5.378401,14 Rue Poids de la Farine 13001 Marseille,0.64,housenumber,13201_7371_00014,14,Rue Poids de la Farine,,13001,Marseille,"13, Bouches-du-Rhône, Provence-Alpes-Côte d'Azur",13201,,,Marseille 1er Arrondissement
86 rue d'Aubagne,13001,Marseille,43.293727,5.381524,86 Rue d’Aubagne 13001 Marseille,0.97,housenumber,13201_0576_00086,86,Rue d’Aubagne,,13001,Marseille,"13, Bouches-du-Rhône, Provence-Alpes-Côte d'Azur",13201,,,Marseille 1er Arrondissement
38-40 rue Flégier,13001,Marseille,43.302407,5.386373,40 Rue Flegier 13001 Marseille,0.88,housenumber,13201_3502_00040,40,Rue Flegier,,13001,Marseille,"13, Bouches-du-Rhône, Provence-Alpes-Côte d'Azur",13201,,,Marseille 1er Arrondissement
43 rue Curiol,13001,Marseille,43.297167,5.384847,43 Rue Curiol 13001 Marseille,0.97,housenumber,13201_2657_00043,43,Rue Curiol,,13001,Marseille,"13, Bouches-du-Rhône, Provence-Alpes-Côte d'Azur",13201,,,Marseille 1er Arrondissement
45 rue Curiol,13001,Marseille,43.297111,5.384877,45 Rue Curiol 13001 Marseille,0.97,housenumber,13201_2657_00045,45,Rue Curiol,,13001,Marseille,"13, Bouches-du-Rhône, Provence-Alpes-Côte d'Azur",13201,,,Marseille 1er Arrondissement
36 cours Franklin Roosevelt,13001,Marseille,43.298881,5.387603,36 Cours Franklin Roosevelt 13001 Marseille,0.97,housenumber,13201_3738_00036,36,Cours Franklin Roosevelt,,13001,Marseille,"13, Bouches-du-Rhône, Provence-Alpes-Côte d'Azur",13201,,,Marseille 1er Arrondissement
53 rue de Rome,13001,Marseille,43.29363,5.379469,53 Rue de Rome 13001 Marseille,0.97,housenumber,13201_8024_00053,53,Rue de Rome,,13001,Marseille,"13, Bouches-du-Rhône, Provence-Alpes-Côte d'Azur",13201,,,Marseille 1er Arrondissement
55/57 rue de Rome,13001,Marseille,43.293482,5.379553,57 Rue de Rome 13001 Marseille,0.89,housenumber,13201_8024_00057,57,Rue de Rome,,13001,Marseille,"13, Bouches-du-Rhône, Provence-Alpes-Côte d'Azur",13201,,,Marseille 1er Arrondissement
77 rue d'Aubagne,13001,Marseille,43.293841,5.381532,77 Rue d’Aubagne 13001 Marseille,0.97,housenumber,13201_0576_00077,77,Rue d’Aubagne,,13001,Marseille,"13, Bouches-du-Rhône, Provence-Alpes-Côte d'Azur",13201,,,Marseille 1er Arrondissement
29 rue des Dominicaines,13001,Marseille,43.300301,5.377909,29 Rue des Dominicaines 13001 Marseille,0.97,housenumber,13201_2888_00029,29,Rue des Dominicaines,,13001,Marseille,"13, Bouches-du-Rhône, Provence-Alpes-Côte d'Azur",13201,,,Marseille 1er Arrondissement
75 rue Longue des Capucins / 16 rue de la Fare,13001,Marseille,43.301459,5.378159,75 Rue Longue des Capucins 13001 Marseille,0.69,housenumber,13201_5352_00075,75,Rue Longue des Capucins,,13001,Marseille,"13, Bouches-du-Rhône, Provence-Alpes-Côte d'Azur",13201,,,Marseille 1er Arrondissement
77 la Canebière,13001,Marseille,43.297585,5.380586,77 Voie la Canebiere 13001 Marseille,0.84,housenumber,13201_1689_00077,77,Voie la Canebiere,,13001,Marseille,"13, Bouches-du-Rhône, Provence-Alpes-Côte d'Azur",13201,,,Marseille 1er Arrondissement
8 rue Jemmapes,13001,Marseille,43.299685,5.381903,8 Rue de Jemmapes 13001 Marseille,0.88,housenumber,13201_4813_00008,8,Rue de Jemmapes,,13001,Marseille,"13, Bouches-du-Rhône, Provence-Alpes-Côte d'Azur",13201,,,Marseille 1er Arrondissement
13 rue d'Aubagne,13001,Marseille,43.295673,5.379053,13 Rue d’Aubagne 13001 Marseille,0.97,housenumber,13201_0576_00013,13,Rue d’Aubagne,,13001,Marseille,"13, Bouches-du-Rhône, Provence-Alpes-Côte d'Azur",13201,,,Marseille 1er Arrondissement
57-59 rue des Petites Maries,13001,Marseille,43.301729,5.379179,59 Rue des Petites Maries 13001 Marseille,0.91,housenumber,13201_7051_00059,59,Rue des Petites Maries,,13001,Marseille,"13, Bouches-du-Rhône, Provence-Alpes-Côte d'Azur",13201,,,Marseille 1er Arrondissement
81-83 rue Curiol,13001,Marseille,43.295485,5.385746,83 Rue Curiol 13001 Marseille,0.88,housenumber,13201_2657_00083,83,Rue Curiol,,13001,Marseille,"13, Bouches-du-Rhône, Provence-Alpes-Côte d'Azur",13201,,,Marseille 1er Arrondissement
6 rue Jean Roque,13001,Marseille,43.29434,5.381208,6 Rue Jean Roque 13001 Marseille,0.97,housenumber,13201_4788_00006,6,Rue Jean Roque,,13001,Marseille,"13, Bouches-du-Rhône, Provence-Alpes-Côte d'Azur",13201,,,Marseille 1er Arrondissement
71 rue de Rome,13001,Marseille,43.292964,5.379846,71 Rue de Rome 13001 Marseille,0.97,housenumber,13201_8024_00071,71,Rue de Rome,,13001,Marseille,"13, Bouches-du-Rhône, Provence-Alpes-Côte d'Azur",13201,,,Marseille 1er Arrondissement
67 rue d'Aubagne,13001,Marseille,43.294022,5.381298,67 Rue d’Aubagne 13001 Marseille,0.97,housenumber,13201_0576_00067,67,Rue d’Aubagne,,13001,Marseille,"13, Bouches-du-Rhône, Provence-Alpes-Côte d'Azur",13201,,,Marseille 1er Arrondissement
10 rue Jean Roque,13001,Marseille,43.29446,5.381295,10 Rue Jean Roque 13001 Marseille,0.97,housenumber,13201_4788_00010,10,Rue Jean Roque,,13001,Marseille,"13, Bouches-du-Rhône, Provence-Alpes-Côte d'Azur",13201,,,Marseille 1er Arrondissement
10 boulevard de la Liberté / 20 rue Lafayette,13001,Marseille,43.300721,5.381755,10 Boulevard de la Liberte 13001 Marseille,0.7,housenumber,13201_5268_00010,10,Boulevard de la Liberte,,13001,Marseille,"13, Bouches-du-Rhône, Provence-Alpes-Côte d'Azur",13201,,,Marseille 1er Arrondissement
4 rue des Feuillants,13001,Marseille,43.296535,5.378688,4 Rue des Feuillants 13001 Marseille,0.96,housenumber,13201_3462_00004,4,Rue des Feuillants,,13001,Marseille,"13, Bouches-du-Rhône, Provence-Alpes-Côte d'Azur",13201,,,Marseille 1er Arrondissement
10 place Jean Jaurès,13001,Marseille,43.296087,5.386319,10 Place Jean Jaures 13001 Marseille,0.97,housenumber,13201_4750_00010,10,Place Jean Jaures,,13001,Marseille,"13, Bouches-du-Rhône, Provence-Alpes-Côte d'Azur",13201,,,Marseille 1er Arrondissement
36 rue Curiol,13001,Marseille,43.297257,5.38468,36 Rue Curiol 13001 Marseille,0.97,housenumber,13201_2657_00036,36,Rue Curiol,,13001,Marseille,"13, Bouches-du-Rhône, Provence-Alpes-Côte d'Azur",13201,,,Marseille 1er Arrondissement
22 rue du Tapis Vert,13001,Marseille,43.298275,5.378059,22 Rue Tapis Vert 13001 Marseille,0.89,housenumber,13201_8920_00022,22,Rue Tapis Vert,,13001,Marseille,"13, Bouches-du-Rhône, Provence-Alpes-Côte d'Azur",13201,,,Marseille 1er Arrondissement
4 rue Jean Roque,13001,Marseille,43.294278,5.381164,4 Rue Jean Roque 13001 Marseille,0.97,housenumber,13201_4788_00004,4,Rue Jean Roque,,13001,Marseille,"13, Bouches-du-Rhône, Provence-Alpes-Côte d'Azur",13201,,,Marseille 1er Arrondissement
11 rue du Loisir,13001,Marseille,43.296661,5.386001,11 Rue du Loisir 13001 Marseille,0.97,housenumber,13201_5341_00011,11,Rue du Loisir,,13001,Marseille,"13, Bouches-du-Rhône, Provence-Alpes-Côte d'Azur",13201,,,Marseille 1er Arrondissement
16 rue Guibal,13001,Marseille,43.306059,5.384764,16 Rue Guibal 13001 Marseille,0.97,housenumber,13201_4295_00016,16,Rue Guibal,,13001,Marseille,"13, Bouches-du-Rhône, Provence-Alpes-Côte d'Azur",13201,,,Marseille 1er Arrondissement
14 cours Saint-Louis / 2 rue de Rome / 2 rue Rouget de l'Isle,13001,Marseille,43.295436,5.377812,Rue Rouget de Lisle 13001 Marseille,0.46,street,13201_3z1u3v,,Rue Rouget de Lisle,,13001,Marseille,"13, Bouches-du-Rhône, Provence-Alpes-Côte d'Azur",13201,,,Marseille 1er Arrondissement
10 rue Corneille,13001,Marseille,43.293431,5.375474,10 Rue Corneille 13001 Marseille,0.96,housenumber,13201_2557_00010,10,Rue Corneille,,13001,Marseille,"13, Bouches-du-Rhône, Provence-Alpes-Côte d'Azur",13201,,,Marseille 1er Arrondissement
40 rue Sainte-Bazile,13001,Marseille,43.300491,5.381787,40 Rue Saint Bazile 13001 Marseille,0.89,housenumber,13201_8260_00040,40,Rue Saint Bazile,,13001,Marseille,"13, Bouches-du-Rhône, Provence-Alpes-Côte d'Azur",13201,,,Marseille 1er Arrondissement
12 boulevard de la Liberté,13001,Marseille,43.300738,5.381861,12 Boulevard de la Liberte 13001 Marseille,0.97,housenumber,13201_5268_00012,12,Boulevard de la Liberte,,13001,Marseille,"13, Bouches-du-Rhône, Provence-Alpes-Côte d'Azur",13201,,,Marseille 1er Arrondissement
14 rue Chateauredon,13001,Marseille,43.294966,5.381077,14 Rue Chateauredon 13001 Marseille,0.97,housenumber,13201_2177_00014,14,Rue Chateauredon,,13001,Marseille,"13, Bouches-du-Rhône, Provence-Alpes-Côte d'Azur",13201,,,Marseille 1er Arrondissement
57 rue d'Aubagne,13001,Marseille,43.294298,5.380948,57 Rue d’Aubagne 13001 Marseille,0.97,housenumber,13201_0576_00057,57,Rue d’Aubagne,,13001,Marseille,"13, Bouches-du-Rhône, Provence-Alpes-Côte d'Azur",13201,,,Marseille 1er Arrondissement
9 rue Nationale,13001,Marseille,43.299417,5.376844,9 Rue Nationale 13001 Marseille,0.97,housenumber,13201_6465_00009,9,Rue Nationale,,13001,Marseille,"13, Bouches-du-Rhône, Provence-Alpes-Côte d'Azur",13201,,,Marseille 1er Arrondissement
30 rue d'Aix,13001,Marseille,43.300459,5.375608,30 Rue d’Aix 13001 Marseille,0.97,housenumber,13201_0114_00030,30,Rue d’Aix,,13001,Marseille,"13, Bouches-du-Rhône, Provence-Alpes-Côte d'Azur",13201,,,Marseille 1er Arrondissement
3 rue Vacon / 1 rue Halle Delacroix,13001,Marseille,43.295153,5.379332,3 Rue Halle Charles Delacroix 13001 Marseille,0.64,housenumber,13201_4375_00003,3,Rue Halle Charles Delacroix,,13001,Marseille,"13, Bouches-du-Rhône, Provence-Alpes-Côte d'Azur",13201,,,Marseille 1er Arrondissement
15 rue du Musée,13001,Marseille,43.296216,5.378974,15 Rue du Musee 13001 Marseille,0.97,housenumber,13201_6440_00015,15,Rue du Musee,,13001,Marseille,"13, Bouches-du-Rhône, Provence-Alpes-Côte d'Azur",13201,,,Marseille 1er Arrondissement
55 rue d'Aubagne,13001,Marseille,43.294353,5.380877,55 Rue d’Aubagne 13001 Marseille,0.97,housenumber,13201_0576_00055,55,Rue d’Aubagne,,13001,Marseille,"13, Bouches-du-Rhône, Provence-Alpes-Côte d'Azur",13201,,,Marseille 1er Arrondissement
41 rue Adolphe Thiers,13001,Marseille,43.297273,5.385457,41 Rue Adolphe Thiers 13001 Marseille,0.97,housenumber,13201_0074_00041,41,Rue Adolphe Thiers,,13001,Marseille,"13, Bouches-du-Rhône, Provence-Alpes-Côte d'Azur",13201,,,Marseille 1er Arrondissement
39 rue Adolphe Thiers,13001,Marseille,43.297334,5.385451,39 Rue Adolphe Thiers 13001 Marseille,0.97,housenumber,13201_0074_00039,39,Rue Adolphe Thiers,,13001,Marseille,"13, Bouches-du-Rhône, Provence-Alpes-Côte d'Azur",13201,,,Marseille 1er Arrondissement
31 rue Chateauredon,13001,Marseille,43.295626,5.38147,31 Rue Chateauredon 13001 Marseille,0.97,housenumber,13201_2177_00031,31,Rue Chateauredon,,13001,Marseille,"13, Bouches-du-Rhône, Provence-Alpes-Côte d'Azur",13201,,,Marseille 1er Arrondissement
10 rue d'Aubagne,13001,Marseille,43.29557,5.379053,10 Rue d’Aubagne 13001 Marseille,0.97,housenumber,13201_0576_00010,10,Rue d’Aubagne,,13001,Marseille,"13, Bouches-du-Rhône, Provence-Alpes-Côte d'Azur",13201,,,Marseille 1er Arrondissement
3 rue Vacon,13001,Marseille,43.29531,5.379221,3 Rue Vacon 13001 Marseille,0.97,housenumber,13201_9275_00003,3,Rue Vacon,,13001,Marseille,"13, Bouches-du-Rhône, Provence-Alpes-Côte d'Azur",13201,,,Marseille 1er Arrondissement
26 boulevard de la Libération,13001,Marseille,43.299573,5.387114,26 Boulevard de la Liberation General de Monsabert 13001 Marseille,0.68,housenumber,13201_h3uw4i_00026,26,Boulevard de la Liberation General de Monsabert,,13001,Marseille,"13, Bouches-du-Rhône, Provence-Alpes-Côte d'Azur",13201,,,Marseille 1er Arrondissement
28 boulevard de la Libération,13001,Marseille,43.299613,5.387228,28 Boulevard de la Liberation General de Monsabert 13001 Marseille,0.68,housenumber,13201_h3uw4i_00028,28,Boulevard de la Liberation General de Monsabert,,13001,Marseille,"13, Bouches-du-Rhône, Provence-Alpes-Côte d'Azur",13201,,,Marseille 1er Arrondissement
46 / 48 rue Tapis vert : 46 rue du tapis vert,13001,Marseille,43.298714,5.379551,48 Rue Tapis Vert 13001 Marseille,0.58,housenumber,13201_8920_00048,48,Rue Tapis Vert,,13001,Marseille,"13, Bouches-du-Rhône, Provence-Alpes-Côte d'Azur",13201,,,Marseille 1er Arrondissement
24 rue de la Bibliothèque,13001,Marseille,43.295531,5.384794,24 Rue de la Bibliotheque 13001 Marseille,0.97,housenumber,13201_1178_00024,24,Rue de la Bibliotheque,,13001,Marseille,"13, Bouches-du-Rhône, Provence-Alpes-Côte d'Azur",13201,,,Marseille 1er Arrondissement
40 rue de la Bibliothèque,13001,Marseille,43.295756,5.3857,40 Rue de la Bibliotheque 13001 Marseille,0.97,housenumber,13201_1178_00040,40,Rue de la Bibliotheque,,13001,Marseille,"13, Bouches-du-Rhône, Provence-Alpes-Côte d'Azur",13201,,,Marseille 1er Arrondissement
47 rue de la Palud,13001,Marseille,43.293296,5.380051,47 Rue de la Palud 13001 Marseille,0.97,housenumber,13201_6757_00047,47,Rue de la Palud,,13001,Marseille,"13, Bouches-du-Rhône, Provence-Alpes-Côte d'Azur",13201,,,Marseille 1er Arrondissement
4 rue de la Palud et 27 rue de Rome,13001,Marseille,43.294732,5.378943,4 Rue de la Palud 13001 Marseille,0.64,housenumber,13201_6757_00004,4,Rue de la Palud,,13001,Marseille,"13, Bouches-du-Rhône, Provence-Alpes-Côte d'Azur",13201,,,Marseille 1er Arrondissement
19 rue Espérandieu,13001,Marseille,43.303274,5.393314,19 Rue Esperandieu 13001 Marseille,0.97,housenumber,13201_3217_00019,19,Rue Esperandieu,,13001,Marseille,"13, Bouches-du-Rhône, Provence-Alpes-Côte d'Azur",13201,,,Marseille 1er Arrondissement
29 allées Léon Gambetta,13001,Marseille,43.299262,5.382723,29 Allée Leon Gambetta 13001 Marseille,0.9,housenumber,13201_5212_00029,29,Allée Leon Gambetta,,13001,Marseille,"13, Bouches-du-Rhône, Provence-Alpes-Côte d'Azur",13201,,,Marseille 1er Arrondissement
8 rue des Recolettes,13001,Marseille,43.296305,5.378438,8 Rue des Recolettes 13001 Marseille,0.97,housenumber,13201_7791_00008,8,Rue des Recolettes,,13001,Marseille,"13, Bouches-du-Rhône, Provence-Alpes-Côte d'Azur",13201,,,Marseille 1er Arrondissement
39 rue du Tapis Vert,13001,Marseille,43.298713,5.37925,39 Rue Tapis Vert 13001 Marseille,0.89,housenumber,13201_8920_00039,39,Rue Tapis Vert,,13001,Marseille,"13, Bouches-du-Rhône, Provence-Alpes-Côte d'Azur",13201,,,Marseille 1er Arrondissement
12-14 rue de Beaumont,13001,Marseille,43.299678,5.383581,14 Rue Beaumont 13001 Marseille,0.81,housenumber,13201_0924_00014,14,Rue Beaumont,,13001,Marseille,"13, Bouches-du-Rhône, Provence-Alpes-Côte d'Azur",13201,,,Marseille 1er Arrondissement
73 allées Léon Gambetta,13001,Marseille,43.299168,5.384811,73 Allée Leon Gambetta 13001 Marseille,0.9,housenumber,13201_5212_00073,73,Allée Leon Gambetta,,13001,Marseille,"13, Bouches-du-Rhône, Provence-Alpes-Côte d'Azur",13201,,,Marseille 1er Arrondissement
22 rue Guibal,13001,Marseille,43.306193,5.384999,22 Rue Guibal 13001 Marseille,0.97,housenumber,13201_4295_00022,22,Rue Guibal,,13001,Marseille,"13, Bouches-du-Rhône, Provence-Alpes-Côte d'Azur",13201,,,Marseille 1er Arrondissement
95 rue d'Aubagne / 50 cours Lieutaud,13001,Marseille,43.293531,5.38193,95 Rue d’Aubagne 13001 Marseille,0.64,housenumber,13201_0576_00095,95,Rue d’Aubagne,,13001,Marseille,"13, Bouches-du-Rhône, Provence-Alpes-Côte d'Azur",13201,,,Marseille 1er Arrondissement
45 boulevard de la Liberté,13001,Marseille,43.301624,5.383199,45 Boulevard de la Liberte 13001 Marseille,0.97,housenumber,13201_5268_00045,45,Boulevard de la Liberte,,13001,Marseille,"13, Bouches-du-Rhône, Provence-Alpes-Côte d'Azur",13201,,,Marseille 1er Arrondissement
79 La Canebière,13001,Marseille,43.297619,5.38068,79 Voie la Canebiere 13001 Marseille,0.84,housenumber,13201_1689_00079,79,Voie la Canebiere,,13001,Marseille,"13, Bouches-du-Rhône, Provence-Alpes-Côte d'Azur",13201,,,Marseille 1er Arrondissement
33 rue Mazenod,13002,Marseille,43.303691,5.365912,33 Rue Mazenod 13002 Marseille,0.97,housenumber,13202_5950_00033,33,Rue Mazenod,,13002,Marseille,"13, Bouches-du-Rhône, Provence-Alpes-Côte d'Azur",13202,,,Marseille 2e Arrondissement
9 rue Michel Salvarelli,13002,Marseille,43.298716,5.367962,9 Rue Michel Salvarelli 13002 Marseille,0.96,housenumber,13202_6038_00009,9,Rue Michel Salvarelli,,13002,Marseille,"13, Bouches-du-Rhône, Provence-Alpes-Côte d'Azur",13202,,,Marseille 2e Arrondissement
115 rue de l’Évêché,13002,Marseille,43.303381,5.367606,115 Rue de l’Eveche 13002 Marseille,0.97,housenumber,13202_3292_00115,115,Rue de l’Eveche,,13002,Marseille,"13, Bouches-du-Rhône, Provence-Alpes-Côte d'Azur",13202,,,Marseille 2e Arrondissement
37 rue Montolieu,13002,Marseille,43.303571,5.371153,37 Rue Montolieu 13002 Marseille,0.97,housenumber,13202_6272_00037,37,Rue Montolieu,,13002,Marseille,"13, Bouches-du-Rhône, Provence-Alpes-Côte d'Azur",13202,,,Marseille 2e Arrondissement
7 rue de Saint-Antoine,13002,Marseille,43.299508,5.370523,7 Rue Saint Antoine 13002 Marseille,0.89,housenumber,13202_8248_00007,7,Rue Saint Antoine,,13002,Marseille,"13, Bouches-du-Rhône, Provence-Alpes-Côte d'Azur",13202,,,Marseille 2e Arrondissement
43 rue de Montolieu,13002,Marseille,43.303674,5.370717,43 Rue Montolieu 13002 Marseille,0.89,housenumber,13202_6272_00043,43,Rue Montolieu,,13002,Marseille,"13, Bouches-du-Rhône, Provence-Alpes-Côte d'Azur",13202,,,Marseille 2e Arrondissement
19 bis Quai de la Joliette,13002,Marseille,43.30172,5.364596,19 b Boulevard Euromediterranee Quai de la Joliette 13002 Marseille,0.56,housenumber,13202_45g26i_00019_b,19 b,Boulevard Euromediterranee Quai de la Joliette,,13002,Marseille,"13, Bouches-du-Rhône, Provence-Alpes-Côte d'Azur",13202,,,Marseille 2e Arrondissement
22/26 rue de la Joliette,13002,Marseille,43.302326,5.372999,26 Rue de la Joliette 13002 Marseille,0.9,housenumber,13202_4841_00026,26,Rue de la Joliette,,13002,Marseille,"13, Bouches-du-Rhône, Provence-Alpes-Côte d'Azur",13202,,,Marseille 2e Arrondissement
48 rue Montolieu,13002,Marseille,43.303774,5.370819,48 Rue Montolieu 13002 Marseille,0.97,housenumber,13202_6272_00048,48,Rue Montolieu,,13002,Marseille,"13, Bouches-du-Rhône, Provence-Alpes-Côte d'Azur",13202,,,Marseille 2e Arrondissement
32 rue Sainte Françoise / 21 rue des Repenties,13002,Marseille,43.298574,5.36639,Rue Sainte Francoise 13002 Marseille,0.6,street,13202_8535,,Rue Sainte Francoise,,13002,Marseille,"13, Bouches-du-Rhône, Provence-Alpes-Côte d'Azur",13202,,,Marseille 2e Arrondissement
2 rue Baussenque,13002,Marseille,43.297817,5.366489,2 Rue Baussenque 13002 Marseille,0.97,housenumber,13202_0886_00002,2,Rue Baussenque,,13002,Marseille,"13, Bouches-du-Rhône, Provence-Alpes-Côte d'Azur",13202,,,Marseille 2e Arrondissement
71 rue Château Joly,13002,Marseille,43.297669,5.365036,71 Rue Chateau Joly 13002 Marseille,0.96,housenumber,13202_2165_00071,71,Rue Chateau Joly,,13002,Marseille,"13, Bouches-du-Rhône, Provence-Alpes-Côte d'Azur",13202,,,Marseille 2e Arrondissement
26 montée des Accoules,13002,Marseille,43.297729,5.367058,26 Montée des Accoules 13002 Marseille,0.97,housenumber,13202_0065_00026,26,Montée des Accoules,,13002,Marseille,"13, Bouches-du-Rhône, Provence-Alpes-Côte d'Azur",13202,,,Marseille 2e Arrondissement
30 montée des Accoules,13002,Marseille,43.297731,5.366913,30 Montée des Accoules 13002 Marseille,0.97,housenumber,13202_0065_00030,30,Montée des Accoules,,13002,Marseille,"13, Bouches-du-Rhône, Provence-Alpes-Côte d'Azur",13202,,,Marseille 2e Arrondissement
23 boulevard des Dames,13002,Marseille,43.30212,5.370493,23 Boulevard des Dames 13002 Marseille,0.97,housenumber,13202_2688_00023,23,Boulevard des Dames,,13002,Marseille,"13, Bouches-du-Rhône, Provence-Alpes-Côte d'Azur",13202,,,Marseille 2e Arrondissement
46 rue Caisserie,13002,Marseille,43.296901,5.366991,46 Rue Caisserie 13002 Marseille,0.97,housenumber,13202_1579_00046,46,Rue Caisserie,,13002,Marseille,"13, Bouches-du-Rhône, Provence-Alpes-Côte d'Azur",13202,,,Marseille 2e Arrondissement
37 rue Pierre Albrand,13002,Marseille,43.307608,5.370753,37 Rue Pierre Albrand 13002 Marseille,0.97,housenumber,13202_7126_00037,37,Rue Pierre Albrand,,13002,Marseille,"13, Bouches-du-Rhône, Provence-Alpes-Côte d'Azur",13202,,,Marseille 2e Arrondissement
31 avenue Robert Schumann,13002,Marseille,43.302592,5.366262,31 Avenue Robert Schuman 13002 Marseille,0.95,housenumber,13202_7954_00031,31,Avenue Robert Schuman,,13002,Marseille,"13, Bouches-du-Rhône, Provence-Alpes-Côte d'Azur",13202,,,Marseille 2e Arrondissement
4 rue porte Baussenque,13002,Marseille,43.297998,5.36717,4 Rue Porte Baussenque 13002 Marseille,0.96,housenumber,13202_7476_00004,4,Rue Porte Baussenque,,13002,Marseille,"13, Bouches-du-Rhône, Provence-Alpes-Côte d'Azur",13202,,,Marseille 2e Arrondissement
10 rue Felix Eboué,13002,Marseille,43.300192,5.372156,10 Rue Felix Eboue 13002 Marseille,0.96,housenumber,13202_3402_00010,10,Rue Felix Eboue,,13002,Marseille,"13, Bouches-du-Rhône, Provence-Alpes-Côte d'Azur",13202,,,Marseille 2e Arrondissement
49 rue Pierre Albran,13002,Marseille,43.307984,5.370541,49 Rue Pierre Albrand 13002 Marseille,0.89,housenumber,13202_7126_00049,49,Rue Pierre Albrand,,13002,Marseille,"13, Bouches-du-Rhône, Provence-Alpes-Côte d'Azur",13202,,,Marseille 2e Arrondissement
4 rue de la Butte,13002,Marseille,43.302048,5.373641,4 Rue de la Butte 13002 Marseille,0.96,housenumber,13202_1523_00004,4,Rue de la Butte,,13002,Marseille,"13, Bouches-du-Rhône, Provence-Alpes-Côte d'Azur",13202,,,Marseille 2e Arrondissement
6 rue de la Butte,13002,Marseille,43.302028,5.373565,6 Rue de la Butte 13002 Marseille,0.96,housenumber,13202_1523_00006,6,Rue de la Butte,,13002,Marseille,"13, Bouches-du-Rhône, Provence-Alpes-Côte d'Azur",13202,,,Marseille 2e Arrondissement
8 rue de la Butte,13002,Marseille,43.302007,5.373491,8 Rue de la Butte 13002 Marseille,0.96,housenumber,13202_1523_00008,8,Rue de la Butte,,13002,Marseille,"13, Bouches-du-Rhône, Provence-Alpes-Côte d'Azur",13202,,,Marseille 2e Arrondissement
35 rue Montolieu,13002,Marseille,43.303535,5.371305,35 Rue Montolieu 13002 Marseille,0.97,housenumber,13202_6272_00035,35,Rue Montolieu,,13002,Marseille,"13, Bouches-du-Rhône, Provence-Alpes-Côte d'Azur",13202,,,Marseille 2e Arrondissement
15 Fontaine de Caylus,13002,Marseille,43.298234,5.366839,15 Rue Fontaine de Caylus 13002 Marseille,0.87,housenumber,13202_3570_00015,15,Rue Fontaine de Caylus,,13002,Marseille,"13, Bouches-du-Rhône, Provence-Alpes-Côte d'Azur",13202,,,Marseille 2e Arrondissement
123/123B rue de l'Évéché,13002,Marseille,43.30384,5.367761,123 b Rue de l’Eveche 13002 Marseille,0.86,housenumber,13202_3292_00123_b,123 b,Rue de l’Eveche,,13002,Marseille,"13, Bouches-du-Rhône, Provence-Alpes-Côte d'Azur",13202,,,Marseille 2e Arrondissement
61 rue du Bon Pasteur,13002,Marseille,43.303908,5.373124,61 Rue du Bon Pasteur 13002 Marseille,0.97,housenumber,13202_1274_00061,61,Rue du Bon Pasteur,,13002,Marseille,"13, Bouches-du-Rhône, Provence-Alpes-Côte d'Azur",13202,,,Marseille 2e Arrondissement
17-19 rue Fontaine de Caylus / 10 rue Baussenque,13002,Marseille,43.29825,5.366735,19 Rue Fontaine de Caylus 13002 Marseille,0.65,housenumber,13202_3570_00019,19,Rue Fontaine de Caylus,,13002,Marseille,"13, Bouches-du-Rhône, Provence-Alpes-Côte d'Azur",13202,,,Marseille 2e Arrondissement
10A rue Baussenque,13002,Marseille,43.298228,5.366624,10 a Rue Baussenque 13002 Marseille,0.89,housenumber,13202_0886_00010_a,10 a,Rue Baussenque,,13002,Marseille,"13, Bouches-du-Rhône, Provence-Alpes-Côte d'Azur",13202,,,Marseille 2e Arrondissement
31 rue Duverger,13002,Marseille,43.303246,5.370835,31 Rue Duverger 13002 Marseille,0.97,housenumber,13202_2958_00031,31,Rue Duverger,,13002,Marseille,"13, Bouches-du-Rhône, Provence-Alpes-Côte d'Azur",13202,,,Marseille 2e Arrondissement
1/3 rue de la Cathédrale,13002,Marseille,43.297876,5.365475,3 Rue de la Cathedrale 13002 Marseille,0.92,housenumber,13202_1843_00003,3,Rue de la Cathedrale,,13002,Marseille,"13, Bouches-du-Rhône, Provence-Alpes-Côte d'Azur",13202,,,Marseille 2e Arrondissement
30 rue du Bon Pasteur,13002,Marseille,43.302896,5.373429,30 Rue du Bon Pasteur 13002 Marseille,0.97,housenumber,13202_1274_00030,30,Rue du Bon Pasteur,,13002,Marseille,"13, Bouches-du-Rhône, Provence-Alpes-Côte d'Azur",13202,,,Marseille 2e Arrondissement
9 Montée des Accoules / 16 rue Caisserie,13002,Marseille,43.29761,5.368172,9 Montée des Accoules 13002 Marseille,0.68,housenumber,13202_0065_00009,9,Montée des Accoules,,13002,Marseille,"13, Bouches-du-Rhône, Provence-Alpes-Côte d'Azur",13202,,,Marseille 2e Arrondissement
27 rue du Bon Pasteur,13002,Marseille,43.302815,5.373346,27 Rue du Bon Pasteur 13002 Marseille,0.97,housenumber,13202_1274_00027,27,Rue du Bon Pasteur,,13002,Marseille,"13, Bouches-du-Rhône, Provence-Alpes-Côte d'Azur",13202,,,Marseille 2e Arrondissement
18 rue fontaine des vents,13002,Marseille,43.297835,5.364873,18 Rue Fontaine des Vents 13002 Marseille,0.96,housenumber,13202_3577_00018,18,Rue Fontaine des Vents,,13002,Marseille,"13, Bouches-du-Rhône, Provence-Alpes-Côte d'Azur",13202,,,Marseille 2e Arrondissement
2 rue de Beaussenque,13002,Marseille,43.302081,5.373793,2 Rue de la Butte 13002 Marseille,0.59,housenumber,13202_1523_00002,2,Rue de la Butte,,13002,Marseille,"13, Bouches-du-Rhône, Provence-Alpes-Côte d'Azur",13202,,,Marseille 2e Arrondissement
8 rue Guintrand,13002,Marseille,43.299934,5.369841,8 Rue Guintrand 13002 Marseille,0.96,housenumber,13202_4328_00008,8,Rue Guintrand,,13002,Marseille,"13, Bouches-du-Rhône, Provence-Alpes-Côte d'Azur",13202,,,Marseille 2e Arrondissement
2 rue Poirier,13002,Marseille,43.297706,5.368244,2 Rue du Poirier 13002 Marseille,0.88,housenumber,13202_7392_00002,2,Rue du Poirier,,13002,Marseille,"13, Bouches-du-Rhône, Provence-Alpes-Côte d'Azur",13202,,,Marseille 2e Arrondissement
20 rue Miradou,13002,Marseille,43.298408,5.364951,20 Rue Miradou 13002 Marseille,0.96,housenumber,13202_6106_00020,20,Rue Miradou,,13002,Marseille,"13, Bouches-du-Rhône, Provence-Alpes-Côte d'Azur",13202,,,Marseille 2e Arrondissement
23bis Quai de la Joliette,13002,Marseille,43.301452,5.364517,23 b Boulevard Euromediterranee Quai de la Joliette 13002 Marseille,0.54,housenumber,13202_45g26i_00023_b,23 b,Boulevard Euromediterranee Quai de la Joliette,,13002,Marseille,"13, Bouches-du-Rhône, Provence-Alpes-Côte d'Azur",13202,,,Marseille 2e Arrondissement
9 rue de la Joliette,13002,Marseille,43.302085,5.373125,9 Rue de la Joliette 13002 Marseille,0.97,housenumber,13202_4841_00009,9,Rue de la Joliette,,13002,Marseille,"13, Bouches-du-Rhône, Provence-Alpes-Côte d'Azur",13202,,,Marseille 2e Arrondissement
15 rue de la Joliette,13002,Marseille,43.302231,5.372909,15 Rue de la Joliette 13002 Marseille,0.97,housenumber,13202_4841_00015,15,Rue de la Joliette,,13002,Marseille,"13, Bouches-du-Rhône, Provence-Alpes-Côte d'Azur",13202,,,Marseille 2e Arrondissement
11 rue de la Joliette,13002,Marseille,43.302136,5.373051,11 Rue de la Joliette 13002 Marseille,0.97,housenumber,13202_4841_00011,11,Rue de la Joliette,,13002,Marseille,"13, Bouches-du-Rhône, Provence-Alpes-Côte d'Azur",13202,,,Marseille 2e Arrondissement
3 rue Hoche,13003,Marseille,43.309266,5.374791,3 Rue Hoche 13003 Marseille,0.97,housenumber,13203_4470_00003,3,Rue Hoche,,13003,Marseille,"13, Bouches-du-Rhône, Provence-Alpes-Côte d'Azur",13203,,,Marseille 3e Arrondissement
107 rue Kléber Prolongée,13003,Marseille,43.310925,5.377633,107 Rue Kleber Prolongee 13003 Marseille,0.97,housenumber,13203_5003_00107,107,Rue Kleber Prolongee,,13003,Marseille,"13, Bouches-du-Rhône, Provence-Alpes-Côte d'Azur",13203,,,Marseille 3e Arrondissement
109 rue Kléber Prolongée,13003,Marseille,43.310977,5.377684,109 Rue Kleber Prolongee 13003 Marseille,0.97,housenumber,13203_5003_00109,109,Rue Kleber Prolongee,,13003,Marseille,"13, Bouches-du-Rhône, Provence-Alpes-Côte d'Azur",13203,,,Marseille 3e Arrondissement
39 rue François Barbini,13003,Marseille,43.313835,5.381097,39 Rue Francois Barbini 13003 Marseille,0.97,housenumber,13203_3700_00039,39,Rue Francois Barbini,,13003,Marseille,"13, Bouches-du-Rhône, Provence-Alpes-Côte d'Azur",13203,,,Marseille 3e Arrondissement
12 rue Guichard,13003,Marseille,43.315063,5.375806,12 Rue Guichard 13003 Marseille,0.97,housenumber,13203_4309_00012,12,Rue Guichard,,13003,Marseille,"13, Bouches-du-Rhône, Provence-Alpes-Côte d'Azur",13203,,,Marseille 3e Arrondissement
24 rue du jet d'eau,13003,Marseille,43.314276,5.381061,24 Rue du Jet d’Eau 13003 Marseille,0.97,housenumber,13203_4816_00024,24,Rue du Jet d’Eau,,13003,Marseille,"13, Bouches-du-Rhône, Provence-Alpes-Côte d'Azur",13203,,,Marseille 3e Arrondissement
91 boulevard de Strasbourg,13003,Marseille,43.309378,5.378802,91 Boulevard de Strasbourg 13003 Marseille,0.97,housenumber,13203_8857_00091,91,Boulevard de Strasbourg,,13003,Marseille,"13, Bouches-du-Rhône, Provence-Alpes-Côte d'Azur",13203,,,Marseille 3e Arrondissement
44 rue Toussaint,13003,Marseille,43.314108,5.38337,44 Rue Toussaint 13003 Marseille,0.97,housenumber,13203_9123_00044,44,Rue Toussaint,,13003,Marseille,"13, Bouches-du-Rhône, Provence-Alpes-Côte d'Azur",13203,,,Marseille 3e Arrondissement
18 rue de Séry,13003,Marseille,43.31327,5.387122,18 Rue Sery 13003 Marseille,0.87,housenumber,13203_8729_00018,18,Rue Sery,,13003,Marseille,"13, Bouches-du-Rhône, Provence-Alpes-Côte d'Azur",13203,,,Marseille 3e Arrondissement
4 place de Strasbourg,13003,Marseille,43.305886,5.373672,4 Place de Strasbourg/paul Cermolacce 13003 Marseille,0.68,housenumber,13203_8862_00004,4,Place de Strasbourg/paul Cermolacce,,13003,Marseille,"13, Bouches-du-Rhône, Provence-Alpes-Côte d'Azur",13203,,,Marseille 3e Arrondissement
22 rue Toussaint,13003,Marseille,43.313511,5.382581,22 Rue Toussaint 13003 Marseille,0.97,housenumber,13203_9123_00022,22,Rue Toussaint,,13003,Marseille,"13, Bouches-du-Rhône, Provence-Alpes-Côte d'Azur",13203,,,Marseille 3e Arrondissement
42bis rue François Barbini,13003,Marseille,43.313679,5.381419,Rue Francois Barbini 13003 Marseille,0.84,street,13203_3700,,Rue Francois Barbini,,13003,Marseille,"13, Bouches-du-Rhône, Provence-Alpes-Côte d'Azur",13203,,,Marseille 3e Arrondissement
18 rue Danton,13003,Marseille,43.313362,5.381218,18 Rue Danton 13003 Marseille,0.97,housenumber,13203_2697_00018,18,Rue Danton,,13003,Marseille,"13, Bouches-du-Rhône, Provence-Alpes-Côte d'Azur",13203,,,Marseille 3e Arrondissement
6 rue Gautier,13003,Marseille,43.313561,5.377498,6 Rue Gautier 13003 Marseille,0.97,housenumber,13203_3938_00006,6,Rue Gautier,,13003,Marseille,"13, Bouches-du-Rhône, Provence-Alpes-Côte d'Azur",13203,,,Marseille 3e Arrondissement
68 rue Clovis Hugues,13003,Marseille,43.310915,5.384844,68 Rue Clovis Hugues 13003 Marseille,0.97,housenumber,13203_2373_00068,68,Rue Clovis Hugues,,13003,Marseille,"13, Bouches-du-Rhône, Provence-Alpes-Côte d'Azur",13203,,,Marseille 3e Arrondissement
11 boulevard Battala,13003,Marseille,43.3173,5.377927,11 Boulevard Battala 13003 Marseille,0.97,housenumber,13203_0842_00011,11,Boulevard Battala,,13003,Marseille,"13, Bouches-du-Rhône, Provence-Alpes-Côte d'Azur",13203,,,Marseille 3e Arrondissement
5 rue Caussemille,13003,Marseille,43.313173,5.38301,5 Rue Caussemille 13003 Marseille,0.97,housenumber,13203_1850_00005,5,Rue Caussemille,,13003,Marseille,"13, Bouches-du-Rhône, Provence-Alpes-Côte d'Azur",13203,,,Marseille 3e Arrondissement
16 rue Toussaint,13003,Marseille,43.313355,5.382375,16 Rue Toussaint 13003 Marseille,0.97,housenumber,13203_9123_00016,16,Rue Toussaint,,13003,Marseille,"13, Bouches-du-Rhône, Provence-Alpes-Côte d'Azur",13203,,,Marseille 3e Arrondissement
49 rue Clovis Hugues,13003,Marseille,43.310104,5.385497,49 Rue Clovis Hugues 13003 Marseille,0.97,housenumber,13203_2373_00049,49,Rue Clovis Hugues,,13003,Marseille,"13, Bouches-du-Rhône, Provence-Alpes-Côte d'Azur",13203,,,Marseille 3e Arrondissement
7 boulevard de Briançon,13003,Marseille,43.317084,5.369517,7 Boulevard de Briancon 13003 Marseille,0.97,housenumber,13203_1453_00007,7,Boulevard de Briancon,,13003,Marseille,"13, Bouches-du-Rhône, Provence-Alpes-Côte d'Azur",13203,,,Marseille 3e Arrondissement
33 rue Clovis Hugues,13003,Marseille,43.309642,5.385989,33 Rue Clovis Hugues 13003 Marseille,0.97,housenumber,13203_2373_00033,33,Rue Clovis Hugues,,13003,Marseille,"13, Bouches-du-Rhône, Provence-Alpes-Côte d'Azur",13203,,,Marseille 3e Arrondissement
29 rue Francois Barbini,13003,Marseille,43.313644,5.38149,29 Rue Francois Barbini 13003 Marseille,0.97,housenumber,13203_3700_00029,29,Rue Francois Barbini,,13003,Marseille,"13, Bouches-du-Rhône, Provence-Alpes-Côte d'Azur",13203,,,Marseille 3e Arrondissement
8 place de Strasbourg Paul Cermolacce,13003,Marseille,43.306029,5.373876,8 Place de Strasbourg/paul Cermolacce 13003 Marseille,0.96,housenumber,13203_8862_00008,8,Place de Strasbourg/paul Cermolacce,,13003,Marseille,"13, Bouches-du-Rhône, Provence-Alpes-Côte d'Azur",13203,,,Marseille 3e Arrondissement
73 rue Clovis Hugues,13003,Marseille,43.310938,5.384611,73 Rue Clovis Hugues 13003 Marseille,0.97,housenumber,13203_2373_00073,73,Rue Clovis Hugues,,13003,Marseille,"13, Bouches-du-Rhône, Provence-Alpes-Côte d'Azur",13203,,,Marseille 3e Arrondissement
79 rue Clovis Hugues,13003,Marseille,43.311088,5.384452,79 Rue Clovis Hugues 13003 Marseille,0.97,housenumber,13203_2373_00079,79,Rue Clovis Hugues,,13003,Marseille,"13, Bouches-du-Rhône, Provence-Alpes-Côte d'Azur",13203,,,Marseille 3e Arrondissement
4bis impasse du Prophète,13003,Marseille,43.3148,5.379121,4 b Impasse du Prophete 13003 Marseille,0.85,housenumber,13203_7578_00004_b,4 b,Impasse du Prophete,,13003,Marseille,"13, Bouches-du-Rhône, Provence-Alpes-Côte d'Azur",13203,,,Marseille 3e Arrondissement
10 rue Jouven,13003,Marseille,43.313531,5.375929,10 Rue Jouven 13003 Marseille,0.97,housenumber,13203_4916_00010,10,Rue Jouven,,13003,Marseille,"13, Bouches-du-Rhône, Provence-Alpes-Côte d'Azur",13203,,,Marseille 3e Arrondissement
81 rue Roger Salengro,13003,Marseille,43.3134,5.371156,81 Avenue Roger Salengro 13003 Marseille,0.82,housenumber,13203_7989_00081,81,Avenue Roger Salengro,,13003,Marseille,"13, Bouches-du-Rhône, Provence-Alpes-Côte d'Azur",13203,,,Marseille 3e Arrondissement
26 boulevard Battala,13003,Marseille,43.317544,5.378434,26 Boulevard Battala 13003 Marseille,0.97,housenumber,13203_0842_00026,26,Boulevard Battala,,13003,Marseille,"13, Bouches-du-Rhône, Provence-Alpes-Côte d'Azur",13203,,,Marseille 3e Arrondissement
354/356 boulevard National / 15 rue Jouven,13003,Marseille,43.313762,5.374469,356 Boulevard National 13003 Marseille,0.68,housenumber,13203_6461_00356,356,Boulevard National,,13003,Marseille,"13, Bouches-du-Rhône, Provence-Alpes-Côte d'Azur",13203,,,Marseille 3e Arrondissement
22 impasse Junot,13003,Marseille,43.312076,5.375777,22 Impasse Junot 13003 Marseille,0.96,housenumber,13203_4981_00022,22,Impasse Junot,,13003,Marseille,"13, Bouches-du-Rhône, Provence-Alpes-Côte d'Azur",13203,,,Marseille 3e Arrondissement
116 avenue Camille Pelletan,13003,Marseille,43.308514,5.374329,116 Avenue Camille Pelletan 13003 Marseille,0.97,housenumber,13203_1624_00116,116,Avenue Camille Pelletan,,13003,Marseille,"13, Bouches-du-Rhône, Provence-Alpes-Côte d'Azur",13203,,,Marseille 3e Arrondissement
25 rue de Crimée / 17 rue Gustave Desplaces,13003,Marseille,43.305086,5.380355,Boulevard Gustave Desplaces 13003 Marseille,0.51,street,13203_4335,,Boulevard Gustave Desplaces,,13003,Marseille,"13, Bouches-du-Rhône, Provence-Alpes-Côte d'Azur",13203,,,Marseille 3e Arrondissement
7 avenue Alphée Cartier,13003,Marseille,43.31257,5.377069,7 Avenue Alphee Cartier 13003 Marseille,0.96,housenumber,13203_0252_00007,7,Avenue Alphee Cartier,,13003,Marseille,"13, Bouches-du-Rhône, Provence-Alpes-Côte d'Azur",13203,,,Marseille 3e Arrondissement
4 rue Dessaix,13003,Marseille,43.308531,5.37455,4 Rue Desaix 13003 Marseille,0.93,housenumber,13203_2779_00004,4,Rue Desaix,,13003,Marseille,"13, Bouches-du-Rhône, Provence-Alpes-Côte d'Azur",13203,,,Marseille 3e Arrondissement
118 avenue Camille Pelletan,13003,Marseille,43.308601,5.374361,118 Avenue Camille Pelletan 13003 Marseille,0.97,housenumber,13203_1624_00118,118,Avenue Camille Pelletan,,13003,Marseille,"13, Bouches-du-Rhône, Provence-Alpes-Côte d'Azur",13203,,,Marseille 3e Arrondissement
114 avenue Camille Pelletan,13003,Marseille,43.308446,5.374298,114 Avenue Camille Pelletan 13003 Marseille,0.97,housenumber,13203_1624_00114,114,Avenue Camille Pelletan,,13003,Marseille,"13, Bouches-du-Rhône, Provence-Alpes-Côte d'Azur",13203,,,Marseille 3e Arrondissement
67 rue Levat,13003,Marseille,43.310562,5.387597,67 Rue Levat 13003 Marseille,0.97,housenumber,13203_5254_00067,67,Rue Levat,,13003,Marseille,"13, Bouches-du-Rhône, Provence-Alpes-Côte d'Azur",13203,,,Marseille 3e Arrondissement
1 rue Mathieu Stilatti,13003,Marseille,43.308618,5.377308,1 Rue Mathieu Stilatti 13003 Marseille,0.97,housenumber,13203_5894_00001,1,Rue Mathieu Stilatti,,13003,Marseille,"13, Bouches-du-Rhône, Provence-Alpes-Côte d'Azur",13203,,,Marseille 3e Arrondissement
19 rue Clovis Hugues,13003,Marseille,43.309305,5.386345,19 Rue Clovis Hugues 13003 Marseille,0.97,housenumber,13203_2373_00019,19,Rue Clovis Hugues,,13003,Marseille,"13, Bouches-du-Rhône, Provence-Alpes-Côte d'Azur",13203,,,Marseille 3e Arrondissement
"5 Bis, impasse de l'Ouest",13003,Marseille,43.308221,5.3764,Impasse de l’Ouest 13003 Marseille,0.82,street,13203_6714,,Impasse de l’Ouest,,13003,Marseille,"13, Bouches-du-Rhône, Provence-Alpes-Côte d'Azur",13203,,,Marseille 3e Arrondissement
24 rue Hoche,13003,Marseille,43.309696,5.375216,24 Rue Hoche 13003 Marseille,0.97,housenumber,13203_4470_00024,24,Rue Hoche,,13003,Marseille,"13, Bouches-du-Rhône, Provence-Alpes-Côte d'Azur",13203,,,Marseille 3e Arrondissement
152 avenue Roger Salengro,13003,Marseille,43.316316,5.369488,152 Avenue Roger Salengro 13003 Marseille,0.97,housenumber,13203_7989_00152,152,Avenue Roger Salengro,,13003,Marseille,"13, Bouches-du-Rhône, Provence-Alpes-Côte d'Azur",13203,,,Marseille 3e Arrondissement
158 avenue Roger Salengro,13003,Marseille,43.316434,5.369411,158 Avenue Roger Salengro 13003 Marseille,0.97,housenumber,13203_7989_00158,158,Avenue Roger Salengro,,13003,Marseille,"13, Bouches-du-Rhône, Provence-Alpes-Côte d'Azur",13203,,,Marseille 3e Arrondissement
107 rue Kléber Prolongée / 84 rue Hoche,13003,Marseille,43.310925,5.377633,107 Rue Kleber Prolongee 13003 Marseille,0.74,housenumber,13203_5003_00107,107,Rue Kleber Prolongee,,13003,Marseille,"13, Bouches-du-Rhône, Provence-Alpes-Côte d'Azur",13203,,,Marseille 3e Arrondissement
58 boulevard Guigou,13003,Marseille,43.314257,5.393025,58 Boulevard Guigou 13003 Marseille,0.97,housenumber,13203_4312_00058,58,Boulevard Guigou,,13003,Marseille,"13, Bouches-du-Rhône, Provence-Alpes-Côte d'Azur",13203,,,Marseille 3e Arrondissement
6 rue Lautard,13003,Marseille,43.309093,5.381652,6 Rue Lautard 13003 Marseille,0.97,housenumber,13203_5145_00006,6,Rue Lautard,,13003,Marseille,"13, Bouches-du-Rhône, Provence-Alpes-Côte d'Azur",13203,,,Marseille 3e Arrondissement
21 rue Clovis Hugues / Impasse bleue,13003,Marseille,43.309338,5.38631,21 Rue Clovis Hugues 13003 Marseille,0.71,housenumber,13203_2373_00021,21,Rue Clovis Hugues,,13003,Marseille,"13, Bouches-du-Rhône, Provence-Alpes-Côte d'Azur",13203,,,Marseille 3e Arrondissement
6 rue Desaix,13003,Marseille,43.308455,5.374635,6 Rue Desaix 13003 Marseille,0.97,housenumber,13203_2779_00006,6,Rue Desaix,,13003,Marseille,"13, Bouches-du-Rhône, Provence-Alpes-Côte d'Azur",13203,,,Marseille 3e Arrondissement
38 rue Barsotti,13003,Marseille,43.312807,5.381294,38 Rue Thomas Gaspard Fortune Barsotti 13003 Marseille,0.58,housenumber,13203_0781_00038,38,Rue Thomas Gaspard Fortune Barsotti,,13003,Marseille,"13, Bouches-du-Rhône, Provence-Alpes-Côte d'Azur",13203,,,Marseille 3e Arrondissement
131 rue Belle-de-Mai / 154 rue Loubon,13003,Marseille,43.312781,5.38542,131 Rue Belle de Mai 13003 Marseille,0.7,housenumber,13203_0984_00131,131,Rue Belle de Mai,,13003,Marseille,"13, Bouches-du-Rhône, Provence-Alpes-Côte d'Azur",13203,,,Marseille 3e Arrondissement
52 avenue Camille Pelletan,13003,Marseille,43.304213,5.373546,52 Avenue Camille Pelletan 13003 Marseille,0.97,housenumber,13203_1624_00052,52,Avenue Camille Pelletan,,13003,Marseille,"13, Bouches-du-Rhône, Provence-Alpes-Côte d'Azur",13203,,,Marseille 3e Arrondissement
212 boulevard National,13003,Marseille,43.309919,5.379608,212 Boulevard National 13003 Marseille,0.98,housenumber,13203_6461_00212,212,Boulevard National,,13003,Marseille,"13, Bouches-du-Rhône, Provence-Alpes-Côte d'Azur",13203,,,Marseille 3e Arrondissement
15 rue du Jet d'eau,13003,Marseille,43.314148,5.380808,15 Rue du Jet d’Eau 13003 Marseille,0.97,housenumber,13203_4816_00015,15,Rue du Jet d’Eau,,13003,Marseille,"13, Bouches-du-Rhône, Provence-Alpes-Côte d'Azur",13203,,,Marseille 3e Arrondissement
12 rue Caravelle,13003,Marseille,43.31699,5.370299,12 Rue Caravelle 13003 Marseille,0.97,housenumber,13203_1741_00012,12,Rue Caravelle,,13003,Marseille,"13, Bouches-du-Rhône, Provence-Alpes-Côte d'Azur",13203,,,Marseille 3e Arrondissement
41 rue François Barbini,13003,Marseille,43.313873,5.381017,41 Rue Francois Barbini 13003 Marseille,0.97,housenumber,13203_3700_00041,41,Rue Francois Barbini,,13003,Marseille,"13, Bouches-du-Rhône, Provence-Alpes-Côte d'Azur",13203,,,Marseille 3e Arrondissement
5 rue Fortuné Jourdan,13003,Marseille,43.310937,5.385367,5 Rue Fortune Jourdan 13003 Marseille,0.97,housenumber,13203_3647_00005,5,Rue Fortune Jourdan,,13003,Marseille,"13, Bouches-du-Rhône, Provence-Alpes-Côte d'Azur",13203,,,Marseille 3e Arrondissement
4 rue Eugène Pottier,13003,Marseille,43.309224,5.374558,4 Rue Eugene Pottier 13003 Marseille,0.97,housenumber,13203_3285_00004,4,Rue Eugene Pottier,,13003,Marseille,"13, Bouches-du-Rhône, Provence-Alpes-Côte d'Azur",13203,,,Marseille 3e Arrondissement
44 rue Barsotti,13003,Marseille,43.312718,5.381526,44 Rue Thomas Gaspard Fortune Barsotti 13003 Marseille,0.58,housenumber,13203_0781_00044,44,Rue Thomas Gaspard Fortune Barsotti,,13003,Marseille,"13, Bouches-du-Rhône, Provence-Alpes-Côte d'Azur",13203,,,Marseille 3e Arrondissement
37 rue Mathieu Stilatti,13003,Marseille,43.309823,5.375593,37 Rue Mathieu Stilatti 13003 Marseille,0.97,housenumber,13203_5894_00037,37,Rue Mathieu Stilatti,,13003,Marseille,"13, Bouches-du-Rhône, Provence-Alpes-Côte d'Azur",13203,,,Marseille 3e Arrondissement
9 rue Bernard,13003,Marseille,43.310431,5.385653,9 Rue Bernard 13003 Marseille,0.97,housenumber,13203_1115_00009,9,Rue Bernard,,13003,Marseille,"13, Bouches-du-Rhône, Provence-Alpes-Côte d'Azur",13203,,,Marseille 3e Arrondissement
71 rue Clovis Hugues,13003,Marseille,43.310888,5.384664,71 Rue Clovis Hugues 13003 Marseille,0.97,housenumber,13203_2373_00071,71,Rue Clovis Hugues,,13003,Marseille,"13, Bouches-du-Rhône, Provence-Alpes-Côte d'Azur",13203,,,Marseille 3e Arrondissement
27 boulevard Allemand,13003,Marseille,43.312206,5.389462,27 Boulevard Allemand 13003 Marseille,0.97,housenumber,13203_0231_00027,27,Boulevard Allemand,,13003,Marseille,"13, Bouches-du-Rhône, Provence-Alpes-Côte d'Azur",13203,,,Marseille 3e Arrondissement
65 rue Loubon,13003,Marseille,43.312487,5.380716,65 Rue Loubon 13003 Marseille,0.97,housenumber,13203_5385_00065,65,Rue Loubon,,13003,Marseille,"13, Bouches-du-Rhône, Provence-Alpes-Côte d'Azur",13203,,,Marseille 3e Arrondissement
58 rue Jean Cristofol,13003,Marseille,43.310664,5.383105,58 Rue Jean Cristofol 13003 Marseille,0.97,housenumber,13203_4717_00058,58,Rue Jean Cristofol,,13003,Marseille,"13, Bouches-du-Rhône, Provence-Alpes-Côte d'Azur",13203,,,Marseille 3e Arrondissement
7 boulevard Battala,13003,Marseille,43.317217,5.377818,7 Boulevard Battala 13003 Marseille,0.97,housenumber,13203_0842_00007,7,Boulevard Battala,,13003,Marseille,"13, Bouches-du-Rhône, Provence-Alpes-Côte d'Azur",13203,,,Marseille 3e Arrondissement
9 boulevard Battala,13003,Marseille,43.317256,5.377869,9 Boulevard Battala 13003 Marseille,0.97,housenumber,13203_0842_00009,9,Boulevard Battala,,13003,Marseille,"13, Bouches-du-Rhône, Provence-Alpes-Côte d'Azur",13203,,,Marseille 3e Arrondissement
28 boulevard Leccia,13003,Marseille,43.312101,5.388975,28 Boulevard Leccia 13003 Marseille,0.97,housenumber,13203_5182_00028,28,Boulevard Leccia,,13003,Marseille,"13, Bouches-du-Rhône, Provence-Alpes-Côte d'Azur",13203,,,Marseille 3e Arrondissement
36/38 rue d'Orange,13003,Marseille,43.313783,5.385788,38 Rue d’Orange 13003 Marseille,0.88,housenumber,13203_6692_00038,38,Rue d’Orange,,13003,Marseille,"13, Bouches-du-Rhône, Provence-Alpes-Côte d'Azur",13203,,,Marseille 3e Arrondissement
1 rue Mathieu Stilatti / 57 boulevard de Strasbourg,13003,Marseille,43.308618,5.377308,1 Rue Mathieu Stilatti 13003 Marseille,0.58,housenumber,13203_5894_00001,1,Rue Mathieu Stilatti,,13003,Marseille,"13, Bouches-du-Rhône, Provence-Alpes-Côte d'Azur",13203,,,Marseille 3e Arrondissement
11 rue Clovis Hugues,13003,Marseille,43.309091,5.386573,11 Rue Clovis Hugues 13003 Marseille,0.97,housenumber,13203_2373_00011,11,Rue Clovis Hugues,,13003,Marseille,"13, Bouches-du-Rhône, Provence-Alpes-Côte d'Azur",13203,,,Marseille 3e Arrondissement
20 rue Bernard,13003,Marseille,43.310542,5.386499,20 Rue Bernard 13003 Marseille,0.97,housenumber,13203_1115_00020,20,Rue Bernard,,13003,Marseille,"13, Bouches-du-Rhône, Provence-Alpes-Côte d'Azur",13203,,,Marseille 3e Arrondissement
26 rue Belle-de-Mai,13003,Marseille,43.308764,5.381945,26 Rue Belle de Mai 13003 Marseille,0.97,housenumber,13203_0984_00026,26,Rue Belle de Mai,,13003,Marseille,"13, Bouches-du-Rhône, Provence-Alpes-Côte d'Azur",13203,,,Marseille 3e Arrondissement
20 rue Jouven,13003,Marseille,43.314169,5.375017,20 Rue Jouven 13003 Marseille,0.97,housenumber,13203_4916_00020,20,Rue Jouven,,13003,Marseille,"13, Bouches-du-Rhône, Provence-Alpes-Côte d'Azur",13203,,,Marseille 3e Arrondissement
20 rue du Jet d'eau,13003,Marseille,43.314178,5.38096,20 Rue du Jet d’Eau 13003 Marseille,0.97,housenumber,13203_4816_00020,20,Rue du Jet d’Eau,,13003,Marseille,"13, Bouches-du-Rhône, Provence-Alpes-Côte d'Azur",13203,,,Marseille 3e Arrondissement
22 rue Jouven,13003,Marseille,43.314235,5.374923,22 Rue Jouven 13003 Marseille,0.97,housenumber,13203_4916_00022,22,Rue Jouven,,13003,Marseille,"13, Bouches-du-Rhône, Provence-Alpes-Côte d'Azur",13203,,,Marseille 3e Arrondissement
57 rue Félix Pyat,13003,Marseille,43.314505,5.375582,57 Rue Felix Pyat 13003 Marseille,0.97,housenumber,13203_3406_00057,57,Rue Felix Pyat,,13003,Marseille,"13, Bouches-du-Rhône, Provence-Alpes-Côte d'Azur",13203,,,Marseille 3e Arrondissement
59 rue Félix Pyat,13003,Marseille,43.314554,5.375529,59 Rue Felix Pyat 13003 Marseille,0.97,housenumber,13203_3406_00059,59,Rue Felix Pyat,,13003,Marseille,"13, Bouches-du-Rhône, Provence-Alpes-Côte d'Azur",13203,,,Marseille 3e Arrondissement
7 rue Eugène Pottier,13003,Marseille,43.309363,5.374476,7 Rue Eugene Pottier 13003 Marseille,0.97,housenumber,13203_3285_00007,7,Rue Eugene Pottier,,13003,Marseille,"13, Bouches-du-Rhône, Provence-Alpes-Côte d'Azur",13203,,,Marseille 3e Arrondissement
43 rue François Barbini,13003,Marseille,43.313909,5.380945,43 Rue Francois Barbini 13003 Marseille,0.97,housenumber,13203_3700_00043,43,Rue Francois Barbini,,13003,Marseille,"13, Bouches-du-Rhône, Provence-Alpes-Côte d'Azur",13203,,,Marseille 3e Arrondissement
24 boulevard Leccia,13003,Marseille,43.311982,5.389032,24 Boulevard Leccia 13003 Marseille,0.97,housenumber,13203_5182_00024,24,Boulevard Leccia,,13003,Marseille,"13, Bouches-du-Rhône, Provence-Alpes-Côte d'Azur",13203,,,Marseille 3e Arrondissement
9 rue Clovis Hugues,13003,Marseille,43.309038,5.38663,9 Rue Clovis Hugues 13003 Marseille,0.97,housenumber,13203_2373_00009,9,Rue Clovis Hugues,,13003,Marseille,"13, Bouches-du-Rhône, Provence-Alpes-Côte d'Azur",13203,,,Marseille 3e Arrondissement
11 rue Kléber,13003,Marseille,43.307117,5.374302,11 Rue Kleber 13003 Marseille,0.97,housenumber,13203_5002_00011,11,Rue Kleber,,13003,Marseille,"13, Bouches-du-Rhône, Provence-Alpes-Côte d'Azur",13203,,,Marseille 3e Arrondissement
9 rue François Barbini,13003,Marseille,43.313214,5.382362,9 Rue Francois Barbini 13003 Marseille,0.97,housenumber,13203_3700_00009,9,Rue Francois Barbini,,13003,Marseille,"13, Bouches-du-Rhône, Provence-Alpes-Côte d'Azur",13203,,,Marseille 3e Arrondissement
52 rue François Barbini,13003,Marseille,43.314091,5.380704,52 Rue Francois Barbini 13003 Marseille,0.97,housenumber,13203_3700_00052,52,Rue Francois Barbini,,13003,Marseille,"13, Bouches-du-Rhône, Provence-Alpes-Côte d'Azur",13203,,,Marseille 3e Arrondissement
22 rue de Séry,13003,Marseille,43.313326,5.387339,22 Rue Sery 13003 Marseille,0.87,housenumber,13203_8729_00022,22,Rue Sery,,13003,Marseille,"13, Bouches-du-Rhône, Provence-Alpes-Côte d'Azur",13203,,,Marseille 3e Arrondissement
103 avenue Roger Salengro,13003,Marseille,43.314283,5.370585,103 Avenue Roger Salengro 13003 Marseille,0.97,housenumber,13203_7989_00103,103,Avenue Roger Salengro,,13003,Marseille,"13, Bouches-du-Rhône, Provence-Alpes-Côte d'Azur",13203,,,Marseille 3e Arrondissement
8 rue Chanterac,13003,Marseille,43.313116,5.37086,8 Rue de Chanterac 13003 Marseille,0.88,housenumber,13203_2025_00008,8,Rue de Chanterac,,13003,Marseille,"13, Bouches-du-Rhône, Provence-Alpes-Côte d'Azur",13203,,,Marseille 3e Arrondissement
7 traverse Sainte-Marie,13003,Marseille,43.317012,5.378363,7 Traverse Sainte Marie 13003 Marseille,0.96,housenumber,13203_8560_00007,7,Traverse Sainte Marie,,13003,Marseille,"13, Bouches-du-Rhône, Provence-Alpes-Côte d'Azur",13203,,,Marseille 3e Arrondissement
9 traverse Sainte-Marie Arrtêté de péril ordinaire du 18/12/2020,13003,Marseille,43.317037,5.378442,9 Traverse Sainte Marie 13003 Marseille,0.49,housenumber,13203_8560_00009,9,Traverse Sainte Marie,,13003,Marseille,"13, Bouches-du-Rhône, Provence-Alpes-Côte d'Azur",13203,,,Marseille 3e Arrondissement
10 traverse Sainte-Marie,13003,Marseille,43.316909,5.378195,10 Traverse Sainte Marie 13003 Marseille,0.96,housenumber,13203_8560_00010,10,Traverse Sainte Marie,,13003,Marseille,"13, Bouches-du-Rhône, Provence-Alpes-Côte d'Azur",13203,,,Marseille 3e Arrondissement
10/12 + 7B traverse Sainte-Marie,13003,Marseille,43.316879,5.378094,7 b Traverse Sainte Marie 13003 Marseille,0.79,housenumber,13203_8560_00007_b,7 b,Traverse Sainte Marie,,13003,Marseille,"13, Bouches-du-Rhône, Provence-Alpes-Côte d'Azur",13203,,,Marseille 3e Arrondissement
2 rue Lucien Rolmer,13003,Marseille,43.304865,5.376229,2 Rue Lucien Rolmer 13003 Marseille,0.96,housenumber,13203_5492_00002,2,Rue Lucien Rolmer,,13003,Marseille,"13, Bouches-du-Rhône, Provence-Alpes-Côte d'Azur",13203,,,Marseille 3e Arrondissement
128 rue Loubon,13003,Marseille,43.312658,5.383932,128 Rue Loubon 13003 Marseille,0.97,housenumber,13203_5385_00128,128,Rue Loubon,,13003,Marseille,"13, Bouches-du-Rhône, Provence-Alpes-Côte d'Azur",13203,,,Marseille 3e Arrondissement
6 rue des Industrieux,13003,Marseille,43.317389,5.374632,6 Rue des Industrieux 13003 Marseille,0.97,housenumber,13203_4578_00006,6,Rue des Industrieux,,13003,Marseille,"13, Bouches-du-Rhône, Provence-Alpes-Côte d'Azur",13203,,,Marseille 3e Arrondissement
10 rue de Marathon,13003,Marseille,43.313253,5.381573,10 Rue Danton 13003 Marseille,0.65,housenumber,13203_2697_00010,10,Rue Danton,,13003,Marseille,"13, Bouches-du-Rhône, Provence-Alpes-Côte d'Azur",13203,,,Marseille 3e Arrondissement
60 rue du Génie,13003,Marseille,43.308078,5.382504,60 Rue du Genie 13003 Marseille,0.97,housenumber,13203_4032_00060,60,Rue du Genie,,13003,Marseille,"13, Bouches-du-Rhône, Provence-Alpes-Côte d'Azur",13203,,,Marseille 3e Arrondissement
33 rue Danton,13003,Marseille,43.313494,5.380469,33 Rue Danton 13003 Marseille,0.97,housenumber,13203_2697_00033,33,Rue Danton,,13003,Marseille,"13, Bouches-du-Rhône, Provence-Alpes-Côte d'Azur",13203,,,Marseille 3e Arrondissement
47 rue Cavaignac,13003,Marseille,43.308082,5.383081,47 Rue Cavaignac 13003 Marseille,0.97,housenumber,13203_1862_00047,47,Rue Cavaignac,,13003,Marseille,"13, Bouches-du-Rhône, Provence-Alpes-Côte d'Azur",13203,,,Marseille 3e Arrondissement
52 rue Belle de Mai,13003,Marseille,43.310728,5.383734,52 Rue Belle de Mai 13003 Marseille,0.97,housenumber,13203_0984_00052,52,Rue Belle de Mai,,13003,Marseille,"13, Bouches-du-Rhône, Provence-Alpes-Côte d'Azur",13203,,,Marseille 3e Arrondissement
41 rue Fortuné Jourdan,13003,Marseille,43.311245,5.386576,41 Rue Fortune Jourdan 13003 Marseille,0.97,housenumber,13203_3647_00041,41,Rue Fortune Jourdan,,13003,Marseille,"13, Bouches-du-Rhône, Provence-Alpes-Côte d'Azur",13203,,,Marseille 3e Arrondissement
29 rue Davin,13004,Marseille,43.305504,5.402598,29 Rue Davin 13004 Marseille,0.97,housenumber,13204_2725_00029,29,Rue Davin,,13004,Marseille,"13, Bouches-du-Rhône, Provence-Alpes-Côte d'Azur",13204,,,Marseille 4e Arrondissement
38 boulevard Philippon,13004,Marseille,43.302937,5.395562,38 Boulevard Philippon 13004 Marseille,0.97,housenumber,13204_7102_00038,38,Boulevard Philippon,,13004,Marseille,"13, Bouches-du-Rhône, Provence-Alpes-Côte d'Azur",13204,,,Marseille 4e Arrondissement
42 avenue des Chartreux,13004,Marseille,43.304052,5.398314,42 Avenue des Chartreux 13004 Marseille,0.98,housenumber,13204_2128_00042,42,Avenue des Chartreux,,13004,Marseille,"13, Bouches-du-Rhône, Provence-Alpes-Côte d'Azur",13204,,,Marseille 4e Arrondissement
115 boulevard de la Blancarde,13004,Marseille,43.303361,5.403803,115 Boulevard de la Blancarde 13004 Marseille,0.98,housenumber,13204_1213_00115,115,Boulevard de la Blancarde,,13004,Marseille,"13, Bouches-du-Rhône, Provence-Alpes-Côte d'Azur",13204,,,Marseille 4e Arrondissement
32 avenue de Saint-Just,13004,Marseille,43.31371,5.402658,32 Avenue de Saint Just 13004 Marseille,0.97,housenumber,13204_8376_00032,32,Avenue de Saint Just,,13004,Marseille,"13, Bouches-du-Rhône, Provence-Alpes-Côte d'Azur",13204,,,Marseille 4e Arrondissement
102 boulevard de la Libération,13004,Marseille,43.300989,5.391414,102 Boulevard de la Liberation General de Monsabert 13004 Marseille,0.68,housenumber,13204_rlu1hd_00102,102,Boulevard de la Liberation General de Monsabert,,13004,Marseille,"13, Bouches-du-Rhône, Provence-Alpes-Côte d'Azur",13204,,,Marseille 4e Arrondissement
197 boulevard de la Libération / Angle Espérandieu,13004,Marseille,43.302194,5.394499,197 Boulevard de la Liberation General de Monsabert 13004 Marseille,0.6,housenumber,13204_rlu1hd_00197,197,Boulevard de la Liberation General de Monsabert,,13004,Marseille,"13, Bouches-du-Rhône, Provence-Alpes-Côte d'Azur",13204,,,Marseille 4e Arrondissement
57 boulevard Dahdah,13004,Marseille,43.310336,5.395863,57 Boulevard Dahdah 13004 Marseille,0.97,housenumber,13204_2676_00057,57,Boulevard Dahdah,,13004,Marseille,"13, Bouches-du-Rhône, Provence-Alpes-Côte d'Azur",13204,,,Marseille 4e Arrondissement
19 boulevard du Colonel Robert Rossi,13004,Marseille,43.303989,5.404208,19 Boulevard du Colonel Robert Rossi 13004 Marseille,0.97,housenumber,13204_2431_00019,19,Boulevard du Colonel Robert Rossi,,13004,Marseille,"13, Bouches-du-Rhône, Provence-Alpes-Côte d'Azur",13204,,,Marseille 4e Arrondissement
89 rue Pautrier,13004,Marseille,43.311217,5.393151,89 Rue Pautrier 13004 Marseille,0.97,housenumber,13204_6932_00089,89,Rue Pautrier,,13004,Marseille,"13, Bouches-du-Rhône, Provence-Alpes-Côte d'Azur",13204,,,Marseille 4e Arrondissement
100/102 avenue des Chartreux,13004,Marseille,43.306053,5.399565,102 Avenue des Chartreux 13004 Marseille,0.89,housenumber,13204_2128_00102,102,Avenue des Chartreux,,13004,Marseille,"13, Bouches-du-Rhône, Provence-Alpes-Côte d'Azur",13204,,,Marseille 4e Arrondissement
21 rue d'Anvers,13004,Marseille,43.302662,5.394158,21 Rue d’Anvers 13004 Marseille,0.97,housenumber,13204_0455_00021,21,Rue d’Anvers,,13004,Marseille,"13, Bouches-du-Rhône, Provence-Alpes-Côte d'Azur",13204,,,Marseille 4e Arrondissement
8-10 impasse Croix de Régnier,13004,Marseille,43.299047,5.390329,10 Impasse Croix de Regnier 13004 Marseille,0.93,housenumber,13204_2627_00010,10,Impasse Croix de Regnier,,13004,Marseille,"13, Bouches-du-Rhône, Provence-Alpes-Côte d'Azur",13204,,,Marseille 4e Arrondissement
49 rue Pierre Albran,13004,Marseille,43.307984,5.370541,49 Rue Pierre Albrand 13002 Marseille,0.8,housenumber,13202_7126_00049,49,Rue Pierre Albrand,,13002,Marseille,"13, Bouches-du-Rhône, Provence-Alpes-Côte d'Azur",13202,,,Marseille 2e Arrondissement
132 boulevard Françoise Duparc / 15-21 avenue Montolivet,13004,Marseille,43.308249,5.402486,132 Boulevard Francoise Duparc 13004 Marseille,0.66,housenumber,13204_3731_00132,132,Boulevard Francoise Duparc,,13004,Marseille,"13, Bouches-du-Rhône, Provence-Alpes-Côte d'Azur",13204,,,Marseille 4e Arrondissement
149 boulevard Françoise Duparc,13004,Marseille,43.308546,5.402274,149 Boulevard Francoise Duparc 13004 Marseille,0.97,housenumber,13204_3731_00149,149,Boulevard Francoise Duparc,,13004,Marseille,"13, Bouches-du-Rhône, Provence-Alpes-Côte d'Azur",13204,,,Marseille 4e Arrondissement
51 boulevard Dahdah,13004,Marseille,43.310354,5.395351,51 Boulevard Dahdah 13004 Marseille,0.97,housenumber,13204_2676_00051,51,Boulevard Dahdah,,13004,Marseille,"13, Bouches-du-Rhône, Provence-Alpes-Côte d'Azur",13204,,,Marseille 4e Arrondissement
6A impasse Croix de Régnier,13004,Marseille,43.299343,5.391204,Impasse Croix de Regnier 13004 Marseille,0.91,street,13204_2627,,Impasse Croix de Regnier,,13004,Marseille,"13, Bouches-du-Rhône, Provence-Alpes-Côte d'Azur",13204,,,Marseille 4e Arrondissement
36 boulevard Boisson,13004,Marseille,43.301857,5.403737,36 Boulevard Boisson 13004 Marseille,0.98,housenumber,13204_1262_00036,36,Boulevard Boisson,,13004,Marseille,"13, Bouches-du-Rhône, Provence-Alpes-Côte d'Azur",13204,,,Marseille 4e Arrondissement
60 rue Roquebrune,13004,Marseille,43.307978,5.404808,60 Rue Roquebrune 13004 Marseille,0.97,housenumber,13204_8040_00060,60,Rue Roquebrune,,13004,Marseille,"13, Bouches-du-Rhône, Provence-Alpes-Côte d'Azur",13204,,,Marseille 4e Arrondissement
47 rue Saint-Pierre,13005,Marseille,43.29323,5.389023,47 Rue Saint Pierre 13005 Marseille,0.98,housenumber,13205_8437_00047,47,Rue Saint Pierre,,13005,Marseille,"13, Bouches-du-Rhône, Provence-Alpes-Côte d'Azur",13205,,,Marseille 5e Arrondissement
49 rue Saint-Pierre,13005,Marseille,43.293205,5.389098,49 Rue Saint Pierre 13005 Marseille,0.98,housenumber,13205_8437_00049,49,Rue Saint Pierre,,13005,Marseille,"13, Bouches-du-Rhône, Provence-Alpes-Côte d'Azur",13205,,,Marseille 5e Arrondissement
40 rue de Bruys,13005,Marseille,43.294436,5.388943,40 Rue de Bruys 13005 Marseille,0.97,housenumber,13205_1500_00040,40,Rue de Bruys,,13005,Marseille,"13, Bouches-du-Rhône, Provence-Alpes-Côte d'Azur",13205,,,Marseille 5e Arrondissement
42 rue de Bruys,13005,Marseille,43.294381,5.388949,42 Rue de Bruys 13005 Marseille,0.97,housenumber,13205_1500_00042,42,Rue de Bruys,,13005,Marseille,"13, Bouches-du-Rhône, Provence-Alpes-Côte d'Azur",13205,,,Marseille 5e Arrondissement
4 rue du docteur Laennec,13005,Marseille,43.293389,5.393149,4 Rue du Docteur Laennec 13005 Marseille,0.97,housenumber,13205_2865_00004,4,Rue du Docteur Laennec,,13005,Marseille,"13, Bouches-du-Rhône, Provence-Alpes-Côte d'Azur",13205,,,Marseille 5e Arrondissement
42bis rue Ferrari,13005,Marseille,43.293271,5.391287,Rue Ferrari 13005 Marseille,0.8,street,13205_3455,,Rue Ferrari,,13005,Marseille,"13, Bouches-du-Rhône, Provence-Alpes-Côte d'Azur",13205,,,Marseille 5e Arrondissement
6 boulevard Frangin,13005,Marseille,43.295172,5.406669,6 Boulevard Louis Frangin 13005 Marseille,0.83,housenumber,13205_5415_00006,6,Boulevard Louis Frangin,,13005,Marseille,"13, Bouches-du-Rhône, Provence-Alpes-Côte d'Azur",13205,,,Marseille 5e Arrondissement
15 rue Michel Mérino,13005,Marseille,43.287871,5.396778,15 Rue Michel Merino 13005 Marseille,0.97,housenumber,13205_6036_00015,15,Rue Michel Merino,,13005,Marseille,"13, Bouches-du-Rhône, Provence-Alpes-Côte d'Azur",13205,,,Marseille 5e Arrondissement
102 boulevard Baille,13005,Marseille,43.287671,5.390827,102 Boulevard Baille 13005 Marseille,0.98,housenumber,13205_0693_00102,102,Boulevard Baille,,13005,Marseille,"13, Bouches-du-Rhône, Provence-Alpes-Côte d'Azur",13205,,,Marseille 5e Arrondissement
40 rue de l'Olivier,13005,Marseille,43.294522,5.388892,40 Rue de l’Olivier 13005 Marseille,0.98,housenumber,13205_6659_00040,40,Rue de l’Olivier,,13005,Marseille,"13, Bouches-du-Rhône, Provence-Alpes-Côte d'Azur",13205,,,Marseille 5e Arrondissement
62 rue Sainte-Cécile,13005,Marseille,43.287608,5.393388,62 Rue Sainte Cecile 13005 Marseille,0.98,housenumber,13205_8512_00062,62,Rue Sainte Cecile,,13005,Marseille,"13, Bouches-du-Rhône, Provence-Alpes-Côte d'Azur",13205,,,Marseille 5e Arrondissement
9 rue Louis Astruc,13005,Marseille,43.295016,5.395788,9 Rue Louis Astruc 13005 Marseille,0.97,housenumber,13205_5392_00009,9,Rue Louis Astruc,,13005,Marseille,"13, Bouches-du-Rhône, Provence-Alpes-Côte d'Azur",13205,,,Marseille 5e Arrondissement
9 rue Sainte Marie,13005,Marseille,43.293533,5.392476,9 Rue Sainte Marie 13005 Marseille,0.97,housenumber,13205_8558_00009,9,Rue Sainte Marie,,13005,Marseille,"13, Bouches-du-Rhône, Provence-Alpes-Côte d'Azur",13205,,,Marseille 5e Arrondissement
73 rue de la Loubière,13005,Marseille,43.290163,5.38987,73 Rue de la Loubiere 13005 Marseille,0.97,housenumber,13205_5383_00073,73,Rue de la Loubiere,,13005,Marseille,"13, Bouches-du-Rhône, Provence-Alpes-Côte d'Azur",13205,,,Marseille 5e Arrondissement
62 rue Saint-Pierre,13005,Marseille,43.292841,5.390141,62 Rue Saint Pierre 13005 Marseille,0.98,housenumber,13205_8437_00062,62,Rue Saint Pierre,,13005,Marseille,"13, Bouches-du-Rhône, Provence-Alpes-Côte d'Azur",13205,,,Marseille 5e Arrondissement
44 rue Saint-Pierre,13005,Marseille,43.29303,5.389416,44 Rue Saint Pierre 13005 Marseille,0.98,housenumber,13205_8437_00044,44,Rue Saint Pierre,,13005,Marseille,"13, Bouches-du-Rhône, Provence-Alpes-Côte d'Azur",13205,,,Marseille 5e Arrondissement
8 rue du Capitaine Galinat,13005,Marseille,43.288568,5.399411,8 Rue Capitaine Galinat 13005 Marseille,0.9,housenumber,13205_1717_00008,8,Rue Capitaine Galinat,,13005,Marseille,"13, Bouches-du-Rhône, Provence-Alpes-Côte d'Azur",13205,,,Marseille 5e Arrondissement
8 rue Fortin,13005,Marseille,43.292289,5.402872,8 Rue Fortin 13005 Marseille,0.97,housenumber,13205_3644_00008,8,Rue Fortin,,13005,Marseille,"13, Bouches-du-Rhône, Provence-Alpes-Côte d'Azur",13205,,,Marseille 5e Arrondissement
72 rue Saint-Pierre,13005,Marseille,43.292631,5.390939,72 Rue Saint Pierre 13005 Marseille,0.98,housenumber,13205_8437_00072,72,Rue Saint Pierre,,13005,Marseille,"13, Bouches-du-Rhône, Provence-Alpes-Côte d'Azur",13205,,,Marseille 5e Arrondissement
32/34 rue Vitalis,13005,Marseille,43.293191,5.393012,34 Rue Vitalis 13005 Marseille,0.89,housenumber,13205_9622_00034,34,Rue Vitalis,,13005,Marseille,"13, Bouches-du-Rhône, Provence-Alpes-Côte d'Azur",13205,,,Marseille 5e Arrondissement
21 rue du Portail,13005,Marseille,43.287695,5.398091,21 Rue du Portail 13005 Marseille,0.97,housenumber,13205_7472_00021,21,Rue du Portail,,13005,Marseille,"13, Bouches-du-Rhône, Provence-Alpes-Côte d'Azur",13205,,,Marseille 5e Arrondissement
146 rue du Camas,13005,Marseille,43.294116,5.398127,146 Rue du Camas 13005 Marseille,0.97,housenumber,13205_1603_00146,146,Rue du Camas,,13005,Marseille,"13, Bouches-du-Rhône, Provence-Alpes-Côte d'Azur",13205,,,Marseille 5e Arrondissement
132 boulevard Baille,13005,Marseille,43.288028,5.392163,132 Boulevard Baille 13005 Marseille,0.98,housenumber,13205_0693_00132,132,Boulevard Baille,,13005,Marseille,"13, Bouches-du-Rhône, Provence-Alpes-Côte d'Azur",13205,,,Marseille 5e Arrondissement
24 rue de l'Eglise Saint Michel,13005,Marseille,43.297032,5.393579,24 Rue de l’Eglise Saint Michel 13005 Marseille,0.97,housenumber,13205_3065_00024,24,Rue de l’Eglise Saint Michel,,13005,Marseille,"13, Bouches-du-Rhône, Provence-Alpes-Côte d'Azur",13205,,,Marseille 5e Arrondissement
35 rue de Lodi,13005,Marseille,43.296712,5.396706,Rue Louis Braille 13005 Marseille,0.53,street,13205_1432,,Rue Louis Braille,,13005,Marseille,"13, Bouches-du-Rhône, Provence-Alpes-Côte d'Azur",13205,,,Marseille 5e Arrondissement
65 rue Nau,13005,Marseille,43.292788,5.389503,65 Rue Nau 13005 Marseille,0.97,housenumber,13205_6468_00065,65,Rue Nau,,13005,Marseille,"13, Bouches-du-Rhône, Provence-Alpes-Côte d'Azur",13205,,,Marseille 5e Arrondissement
71 rue de la Loubière,13005,Marseille,43.290197,5.389803,71 Rue de la Loubiere 13005 Marseille,0.97,housenumber,13205_5383_00071,71,Rue de la Loubiere,,13005,Marseille,"13, Bouches-du-Rhône, Provence-Alpes-Côte d'Azur",13205,,,Marseille 5e Arrondissement
12 rue Château du Mûrier,13005,Marseille,43.285479,5.392082,12 Rue Chateau du Murier 13005 Marseille,0.96,housenumber,13205_2156_00012,12,Rue Chateau du Murier,,13005,Marseille,"13, Bouches-du-Rhône, Provence-Alpes-Côte d'Azur",13205,,,Marseille 5e Arrondissement
87 rue Saint-Savournin,13005,Marseille,43.296279,5.386927,87 Rue Saint Savournin 13005 Marseille,0.97,housenumber,13205_8460_00087,87,Rue Saint Savournin,,13005,Marseille,"13, Bouches-du-Rhône, Provence-Alpes-Côte d'Azur",13205,,,Marseille 5e Arrondissement
45 place Jean Jaurès,13005,Marseille,43.294591,5.387044,45 Place Jean Jaures 13005 Marseille,0.97,housenumber,13205_4750_00045,45,Place Jean Jaures,,13005,Marseille,"13, Bouches-du-Rhône, Provence-Alpes-Côte d'Azur",13205,,,Marseille 5e Arrondissement
33 boulevard Eugène Pierre,13005,Marseille,43.297478,5.390757,33 Boulevard Eugene Pierre 13005 Marseille,0.97,housenumber,13205_3283_00033,33,Boulevard Eugene Pierre,,13005,Marseille,"13, Bouches-du-Rhône, Provence-Alpes-Côte d'Azur",13205,,,Marseille 5e Arrondissement
83 rue Terrusse,13005,Marseille,43.296437,5.391627,83 Rue Terrusse 13005 Marseille,0.97,housenumber,13205_8978_00083,83,Rue Terrusse,,13005,Marseille,"13, Bouches-du-Rhône, Provence-Alpes-Côte d'Azur",13205,,,Marseille 5e Arrondissement
43 place Jean Jaurès,13005,Marseille,43.294647,5.38707,43 Place Jean Jaures 13005 Marseille,0.97,housenumber,13205_4750_00043,43,Place Jean Jaures,,13005,Marseille,"13, Bouches-du-Rhône, Provence-Alpes-Côte d'Azur",13205,,,Marseille 5e Arrondissement
37 rue Fernand Pauriol,13005,Marseille,43.287557,5.391709,37 Rue Fernand Pauriol 13005 Marseille,0.97,housenumber,13205_3451_00037,37,Rue Fernand Pauriol,,13005,Marseille,"13, Bouches-du-Rhône, Provence-Alpes-Côte d'Azur",13205,,,Marseille 5e Arrondissement
35 rue Fernand Pauriol,13005,Marseille,43.28761,5.391682,35 Rue Fernand Pauriol 13005 Marseille,0.97,housenumber,13205_3451_00035,35,Rue Fernand Pauriol,,13005,Marseille,"13, Bouches-du-Rhône, Provence-Alpes-Côte d'Azur",13205,,,Marseille 5e Arrondissement
3 rue Horace Bertin,13005,Marseille,43.295657,5.387751,3 Rue Horace Bertin 13005 Marseille,0.98,housenumber,13205_4508_00003,3,Rue Horace Bertin,,13005,Marseille,"13, Bouches-du-Rhône, Provence-Alpes-Côte d'Azur",13205,,,Marseille 5e Arrondissement
27 rue Saint-Pierre,13005,Marseille,43.293568,5.388034,27 Rue Saint Pierre 13005 Marseille,0.98,housenumber,13205_8437_00027,27,Rue Saint Pierre,,13005,Marseille,"13, Bouches-du-Rhône, Provence-Alpes-Côte d'Azur",13205,,,Marseille 5e Arrondissement
162 rue Saint-Pierre,13005,Marseille,43.292309,5.39706,162 Rue Saint Pierre 13005 Marseille,0.98,housenumber,13205_8437_00162,162,Rue Saint Pierre,,13005,Marseille,"13, Bouches-du-Rhône, Provence-Alpes-Côte d'Azur",13205,,,Marseille 5e Arrondissement
275 rue Saint-Pierre,13005,Marseille,43.292025,5.402721,275 Rue Saint Pierre 13005 Marseille,0.98,housenumber,13205_8437_00275,275,Rue Saint Pierre,,13005,Marseille,"13, Bouches-du-Rhône, Provence-Alpes-Côte d'Azur",13205,,,Marseille 5e Arrondissement
7 rue de Bruys,13005,Marseille,43.297159,5.388781,7 Rue de Bruys 13005 Marseille,0.97,housenumber,13205_1500_00007,7,Rue de Bruys,,13005,Marseille,"13, Bouches-du-Rhône, Provence-Alpes-Côte d'Azur",13205,,,Marseille 5e Arrondissement
7 rue du Portail,13005,Marseille,43.28769,5.398778,7 Rue du Portail 13005 Marseille,0.97,housenumber,13205_7472_00007,7,Rue du Portail,,13005,Marseille,"13, Bouches-du-Rhône, Provence-Alpes-Côte d'Azur",13205,,,Marseille 5e Arrondissement
4 rue de l'Olivier,13005,Marseille,43.294428,5.387289,4 Rue de l’Olivier 13005 Marseille,0.98,housenumber,13205_6659_00004,4,Rue de l’Olivier,,13005,Marseille,"13, Bouches-du-Rhône, Provence-Alpes-Côte d'Azur",13205,,,Marseille 5e Arrondissement
28 rue Melchion - Main-levée du 06/10/2020,13005,Marseille,43.288415,5.390406,28 Rue Melchion 13005 Marseille,0.55,housenumber,13205_5973_00028,28,Rue Melchion,,13005,Marseille,"13, Bouches-du-Rhône, Provence-Alpes-Côte d'Azur",13205,,,Marseille 5e Arrondissement
4bis rue Ferrari  –,13005,Marseille,43.29406,5.387332,4 b Rue Ferrari 13005 Marseille,0.83,housenumber,13205_3455_00004_b,4 b,Rue Ferrari,,13005,Marseille,"13, Bouches-du-Rhône, Provence-Alpes-Côte d'Azur",13205,,,Marseille 5e Arrondissement
24 rue de l'église Saint-Michel,13005,Marseille,43.297032,5.393579,24 Rue de l’Eglise Saint Michel 13005 Marseille,0.97,housenumber,13205_3065_00024,24,Rue de l’Eglise Saint Michel,,13005,Marseille,"13, Bouches-du-Rhône, Provence-Alpes-Côte d'Azur",13205,,,Marseille 5e Arrondissement
58 rue Saint-Pierre,13005,Marseille,43.292885,5.389971,58 Rue Saint Pierre 13005 Marseille,0.98,housenumber,13205_8437_00058,58,Rue Saint Pierre,,13005,Marseille,"13, Bouches-du-Rhône, Provence-Alpes-Côte d'Azur",13205,,,Marseille 5e Arrondissement
161 boulevard Baille,13005,Marseille,43.289815,5.397716,161 Boulevard Baille 13005 Marseille,0.98,housenumber,13205_0693_00161,161,Boulevard Baille,,13005,Marseille,"13, Bouches-du-Rhône, Provence-Alpes-Côte d'Azur",13205,,,Marseille 5e Arrondissement
29 cours Lieutaud,13006,Marseille,43.293957,5.382293,29 Cours Lieutaud 13006 Marseille,0.98,housenumber,13206_5280_00029,29,Cours Lieutaud,,13006,Marseille,"13, Bouches-du-Rhône, Provence-Alpes-Côte d'Azur",13206,,,Marseille 6e Arrondissement
7 rue du Village,13006,Marseille,43.287941,5.383243,7 Rue de Village 13006 Marseille,0.86,housenumber,13206_9569_00007,7,Rue de Village,,13006,Marseille,"13, Bouches-du-Rhône, Provence-Alpes-Côte d'Azur",13206,,,Marseille 6e Arrondissement
9 rue du Village,13006,Marseille,43.287965,5.383324,9 Rue de Village 13006 Marseille,0.86,housenumber,13206_9569_00009,9,Rue de Village,,13006,Marseille,"13, Bouches-du-Rhône, Provence-Alpes-Côte d'Azur",13206,,,Marseille 6e Arrondissement
6/6A rue des Tartares et 13 rue des Amoureux,13006,Marseille,43.281448,5.372487,6 a Rue des Tartares 13006 Marseille,0.6,housenumber,13206_8932_00006_a,6 a,Rue des Tartares,,13006,Marseille,"13, Bouches-du-Rhône, Provence-Alpes-Côte d'Azur",13206,,,Marseille 6e Arrondissement
64 cours Julien,13006,Marseille,43.294069,5.383043,64 Cours Julien 13006 Marseille,0.97,housenumber,13206_4958_00064,64,Cours Julien,,13006,Marseille,"13, Bouches-du-Rhône, Provence-Alpes-Côte d'Azur",13206,,,Marseille 6e Arrondissement
29 rue Saint Suffren,13006,Marseille,43.286946,5.382619,29 Rue Saint Suffren 13006 Marseille,0.97,housenumber,13206_8470_00029,29,Rue Saint Suffren,,13006,Marseille,"13, Bouches-du-Rhône, Provence-Alpes-Côte d'Azur",13206,,,Marseille 6e Arrondissement
88 cours Gouffé,13006,Marseille,43.285171,5.390652,88 Cours Gouffe 13006 Marseille,0.97,housenumber,13206_4162_00088,88,Cours Gouffe,,13006,Marseille,"13, Bouches-du-Rhône, Provence-Alpes-Côte d'Azur",13206,,,Marseille 6e Arrondissement
24 rue Pierre Dupré,13006,Marseille,43.28173,5.38431,24 Rue Pierre Dupre 13006 Marseille,0.97,housenumber,13206_7154_00024,24,Rue Pierre Dupre,,13006,Marseille,"13, Bouches-du-Rhône, Provence-Alpes-Côte d'Azur",13206,,,Marseille 6e Arrondissement
26 rue de Guinée,13006,Marseille,43.280971,5.374729,26 Rue de Guinee 13006 Marseille,0.97,housenumber,13206_4323_00026,26,Rue de Guinee,,13006,Marseille,"13, Bouches-du-Rhône, Provence-Alpes-Côte d'Azur",13206,,,Marseille 6e Arrondissement
1 rue Lafon,13006,Marseille,43.291373,5.381119,1 Rue Lafon 13006 Marseille,0.97,housenumber,13206_5040_00001,1,Rue Lafon,,13006,Marseille,"13, Bouches-du-Rhône, Provence-Alpes-Côte d'Azur",13206,,,Marseille 6e Arrondissement
62 cours Julien,13006,Marseille,43.294141,5.383052,62 Cours Julien 13006 Marseille,0.97,housenumber,13206_4958_00062,62,Cours Julien,,13006,Marseille,"13, Bouches-du-Rhône, Provence-Alpes-Côte d'Azur",13206,,,Marseille 6e Arrondissement
83 rue Marengo,13006,Marseille,43.287769,5.385762,83 Rue Marengo 13006 Marseille,0.97,housenumber,13206_5688_00083,83,Rue Marengo,,13006,Marseille,"13, Bouches-du-Rhône, Provence-Alpes-Côte d'Azur",13206,,,Marseille 6e Arrondissement
53 rue des Trois Frères Barthélemy,13006,Marseille,43.293567,5.386594,53 Rue des Trois Freres Barthelemy 13006 Marseille,0.97,housenumber,13206_9193_00053,53,Rue des Trois Freres Barthelemy,,13006,Marseille,"13, Bouches-du-Rhône, Provence-Alpes-Côte d'Azur",13206,,,Marseille 6e Arrondissement
19 rue d'Italie,13006,Marseille,43.290211,5.381984,19 Rue d’Italie 13006 Marseille,0.97,housenumber,13206_4620_00019,19,Rue d’Italie,,13006,Marseille,"13, Bouches-du-Rhône, Provence-Alpes-Côte d'Azur",13206,,,Marseille 6e Arrondissement
27 rue Bonnefoy,13006,Marseille,43.28622,5.374796,27 Rue Bonnefoy 13006 Marseille,0.97,housenumber,13206_1309_00027,27,Rue Bonnefoy,,13006,Marseille,"13, Bouches-du-Rhône, Provence-Alpes-Côte d'Azur",13206,,,Marseille 6e Arrondissement
5 rue du Village,13006,Marseille,43.287914,5.38315,5 Rue de Village 13006 Marseille,0.86,housenumber,13206_9569_00005,5,Rue de Village,,13006,Marseille,"13, Bouches-du-Rhône, Provence-Alpes-Côte d'Azur",13206,,,Marseille 6e Arrondissement
43 rue du docteur Jean Fiolle,13006,Marseille,43.284486,5.380919,43 Rue du Docteur Jean Fiolle 13006 Marseille,0.97,housenumber,13206_4732_00043,43,Rue du Docteur Jean Fiolle,,13006,Marseille,"13, Bouches-du-Rhône, Provence-Alpes-Côte d'Azur",13206,,,Marseille 6e Arrondissement
139 Cours Lieutaud,13006,Marseille,43.287622,5.384996,139 Cours Lieutaud 13006 Marseille,0.98,housenumber,13206_5280_00139,139,Cours Lieutaud,,13006,Marseille,"13, Bouches-du-Rhône, Provence-Alpes-Côte d'Azur",13206,,,Marseille 6e Arrondissement
6 rue André Poggioli,13006,Marseille,43.293844,5.38532,6 Rue Andre Poggioli 13006 Marseille,0.97,housenumber,13206_0371_00006,6,Rue Andre Poggioli,,13006,Marseille,"13, Bouches-du-Rhône, Provence-Alpes-Côte d'Azur",13206,,,Marseille 6e Arrondissement
36 rue Jean Roque,13006,Marseille,43.295499,5.382051,36 Rue Jean Roque 13006 Marseille,0.96,housenumber,13206_4788_00036,36,Rue Jean Roque,,13006,Marseille,"13, Bouches-du-Rhône, Provence-Alpes-Côte d'Azur",13206,,,Marseille 6e Arrondissement
49 rue des Bons Enfants,13006,Marseille,43.290319,5.388394,49 Rue des Bons Enfants 13006 Marseille,0.97,housenumber,13206_1332_00049,49,Rue des Bons Enfants,,13006,Marseille,"13, Bouches-du-Rhône, Provence-Alpes-Côte d'Azur",13206,,,Marseille 6e Arrondissement
10 Cours Julien,13006,Marseille,43.295729,5.38202,10 Cours Julien 13006 Marseille,0.97,housenumber,13206_4958_00010,10,Cours Julien,,13006,Marseille,"13, Bouches-du-Rhône, Provence-Alpes-Côte d'Azur",13206,,,Marseille 6e Arrondissement
34 rue Jean Roque,13006,Marseille,43.295448,5.382015,34 Rue Jean Roque 13006 Marseille,0.96,housenumber,13206_4788_00034,34,Rue Jean Roque,,13006,Marseille,"13, Bouches-du-Rhône, Provence-Alpes-Côte d'Azur",13206,,,Marseille 6e Arrondissement
40 rue Jean Roque,13006,Marseille,43.295591,5.382118,40 Rue Jean Roque 13006 Marseille,0.96,housenumber,13206_4788_00040,40,Rue Jean Roque,,13006,Marseille,"13, Bouches-du-Rhône, Provence-Alpes-Côte d'Azur",13206,,,Marseille 6e Arrondissement
4 rue Saint-Pierre,13006,Marseille,43.293869,5.386857,4 Rue Saint Pierre 13006 Marseille,0.97,housenumber,13206_8437_00004,4,Rue Saint Pierre,,13006,Marseille,"13, Bouches-du-Rhône, Provence-Alpes-Côte d'Azur",13206,,,Marseille 6e Arrondissement
138 rue de Rome,13006,Marseille,43.288795,5.381975,138 Rue de Rome 13006 Marseille,0.98,housenumber,13206_8024_00138,138,Rue de Rome,,13006,Marseille,"13, Bouches-du-Rhône, Provence-Alpes-Côte d'Azur",13206,,,Marseille 6e Arrondissement
80 rue Perrin Solliers,13006,Marseille,43.287974,5.386219,80 Rue Perrin Solliers 13006 Marseille,0.97,housenumber,13206_7002_00080,80,Rue Perrin Solliers,,13006,Marseille,"13, Bouches-du-Rhône, Provence-Alpes-Côte d'Azur",13206,,,Marseille 6e Arrondissement
12 rue des Vignerons,13006,Marseille,43.287178,5.379764,12 Rue des Vignerons 13006 Marseille,0.96,housenumber,13206_9552_00012,12,Rue des Vignerons,,13006,Marseille,"13, Bouches-du-Rhône, Provence-Alpes-Côte d'Azur",13206,,,Marseille 6e Arrondissement
10 rue des Bons Enfants,13006,Marseille,43.292998,5.388218,10 Rue des Bons Enfants 13006 Marseille,0.97,housenumber,13206_1332_00010,10,Rue des Bons Enfants,,13006,Marseille,"13, Bouches-du-Rhône, Provence-Alpes-Côte d'Azur",13206,,,Marseille 6e Arrondissement
56 rue de la Loubière,13006,Marseille,43.29098,5.387974,56 Rue de la Loubiere 13006 Marseille,0.97,housenumber,13206_5383_00056,56,Rue de la Loubiere,,13006,Marseille,"13, Bouches-du-Rhône, Provence-Alpes-Côte d'Azur",13206,,,Marseille 6e Arrondissement
81 rue d'Italie,13006,Marseille,43.287724,5.383691,81 Rue d’Italie 13006 Marseille,0.97,housenumber,13206_4620_00081,81,Rue d’Italie,,13006,Marseille,"13, Bouches-du-Rhône, Provence-Alpes-Côte d'Azur",13206,,,Marseille 6e Arrondissement
32 rue Fongate,13006,Marseille,43.292049,5.382199,32 Rue Fongate 13006 Marseille,0.97,housenumber,13206_3546_00032,32,Rue Fongate,,13006,Marseille,"13, Bouches-du-Rhône, Provence-Alpes-Côte d'Azur",13206,,,Marseille 6e Arrondissement
18 rue Berlioz,13006,Marseille,43.288948,5.383658,18 Rue Berlioz 13006 Marseille,0.97,housenumber,13206_1103_00018,18,Rue Berlioz,,13006,Marseille,"13, Bouches-du-Rhône, Provence-Alpes-Côte d'Azur",13206,,,Marseille 6e Arrondissement
87 rue de Rome,13006,Marseille,43.292247,5.380253,87 Rue de Rome 13006 Marseille,0.98,housenumber,13206_8024_00087,87,Rue de Rome,,13006,Marseille,"13, Bouches-du-Rhône, Provence-Alpes-Côte d'Azur",13206,,,Marseille 6e Arrondissement
29 rue d'italie,13006,Marseille,43.28972,5.382341,29 Rue d’Italie 13006 Marseille,0.97,housenumber,13206_4620_00029,29,Rue d’Italie,,13006,Marseille,"13, Bouches-du-Rhône, Provence-Alpes-Côte d'Azur",13206,,,Marseille 6e Arrondissement
29 rue Nau,13006,Marseille,43.292809,5.387768,29 Rue Nau 13006 Marseille,0.97,housenumber,13206_6468_00029,29,Rue Nau,,13006,Marseille,"13, Bouches-du-Rhône, Provence-Alpes-Côte d'Azur",13206,,,Marseille 6e Arrondissement
27 rue Nau,13006,Marseille,43.29281,5.387685,27 Rue Nau 13006 Marseille,0.97,housenumber,13206_6468_00027,27,Rue Nau,,13006,Marseille,"13, Bouches-du-Rhône, Provence-Alpes-Côte d'Azur",13206,,,Marseille 6e Arrondissement
85 rue de la Palud,13006,Marseille,43.291774,5.38079,85 Rue de la Palud 13006 Marseille,0.97,housenumber,13206_6757_00085,85,Rue de la Palud,,13006,Marseille,"13, Bouches-du-Rhône, Provence-Alpes-Côte d'Azur",13206,,,Marseille 6e Arrondissement
35 rue de Lodi,13006,Marseille,43.290605,5.386211,35 Rue de Lodi 13006 Marseille,0.97,housenumber,13206_5327_00035,35,Rue de Lodi,,13006,Marseille,"13, Bouches-du-Rhône, Provence-Alpes-Côte d'Azur",13206,,,Marseille 6e Arrondissement
75 rue de Rome / 64 rue de la Palud,13006,Marseille,43.292212,5.380576,75 Rue de la Palud 13006 Marseille,0.68,housenumber,13206_6757_00075,75,Rue de la Palud,,13006,Marseille,"13, Bouches-du-Rhône, Provence-Alpes-Côte d'Azur",13206,,,Marseille 6e Arrondissement
31 rue Nau,13006,Marseille,43.292808,5.387851,31 Rue Nau 13006 Marseille,0.97,housenumber,13206_6468_00031,31,Rue Nau,,13006,Marseille,"13, Bouches-du-Rhône, Provence-Alpes-Côte d'Azur",13206,,,Marseille 6e Arrondissement
59 place Jean Jaurès,13006,Marseille,43.293915,5.386658,59 Place Jean Jaures 13006 Marseille,0.96,housenumber,13206_4750_00059,59,Place Jean Jaures,,13006,Marseille,"13, Bouches-du-Rhône, Provence-Alpes-Côte d'Azur",13206,,,Marseille 6e Arrondissement
61 place Jean Jaurès,13006,Marseille,43.293935,5.386573,61 Place Jean Jaures 13006 Marseille,0.96,housenumber,13206_4750_00061,61,Place Jean Jaures,,13006,Marseille,"13, Bouches-du-Rhône, Provence-Alpes-Côte d'Azur",13206,,,Marseille 6e Arrondissement
15 rue de Loubière,13006,Marseille,43.29172,5.385928,15 Rue de la Loubiere 13006 Marseille,0.9,housenumber,13206_5383_00015,15,Rue de la Loubiere,,13006,Marseille,"13, Bouches-du-Rhône, Provence-Alpes-Côte d'Azur",13206,,,Marseille 6e Arrondissement
129 rue d'Aubagne,13006,Marseille,43.292836,5.382835,129 Rue d’Aubagne 13006 Marseille,0.97,housenumber,13206_0576_00129,129,Rue d’Aubagne,,13006,Marseille,"13, Bouches-du-Rhône, Provence-Alpes-Côte d'Azur",13206,,,Marseille 6e Arrondissement
34 rue Falque,13006,Marseille,43.284114,5.381506,34 Rue Falque 13006 Marseille,0.97,housenumber,13206_3341_00034,34,Rue Falque,,13006,Marseille,"13, Bouches-du-Rhône, Provence-Alpes-Côte d'Azur",13206,,,Marseille 6e Arrondissement
7 rue André Poggioli,13006,Marseille,43.293916,5.385444,7 Rue Andre Poggioli 13006 Marseille,0.97,housenumber,13206_0371_00007,7,Rue Andre Poggioli,,13006,Marseille,"13, Bouches-du-Rhône, Provence-Alpes-Côte d'Azur",13206,,,Marseille 6e Arrondissement
2 rue Nau,13006,Marseille,43.292744,5.386062,2 Rue Nau 13006 Marseille,0.97,housenumber,13206_6468_00002,2,Rue Nau,,13006,Marseille,"13, Bouches-du-Rhône, Provence-Alpes-Côte d'Azur",13206,,,Marseille 6e Arrondissement
11 rue de Village,13006,Marseille,43.288038,5.383568,11 Rue de Village 13006 Marseille,0.97,housenumber,13206_9569_00011,11,Rue de Village,,13006,Marseille,"13, Bouches-du-Rhône, Provence-Alpes-Côte d'Azur",13206,,,Marseille 6e Arrondissement
38 rue du Docteur Escat,13006,Marseille,43.28339,5.381676,38 Rue du Docteur Escat 13006 Marseille,0.97,housenumber,13206_2846_00038,38,Rue du Docteur Escat,,13006,Marseille,"13, Bouches-du-Rhône, Provence-Alpes-Côte d'Azur",13206,,,Marseille 6e Arrondissement
53 rue Fongate,13006,Marseille,43.291508,5.382477,53 Rue Fongate 13006 Marseille,0.97,housenumber,13206_3546_00053,53,Rue Fongate,,13006,Marseille,"13, Bouches-du-Rhône, Provence-Alpes-Côte d'Azur",13206,,,Marseille 6e Arrondissement
